{
  "discoveryDate": "2025-08-06T14:22:16.176Z",
  "totalStoresFound": 159,
  "storesWithDetails": 159,
  "cityPagesProcessed": 130,
  "validStores": [
    {
      "storeId": "ct-greenwich-160-w-putnam-ave",
      "city": "Greenwich",
      "url": "https://local.acmemarkets.com/ct/greenwich/160-w-putnam-ave.html",
      "state": "CT",
      "stateAbbr": "ct",
      "discovered": true,
      "detailsExtracted": true,
      "name": "Grocery Store Near Me - Grocery Delivery Or Pickup - in Downtown Greenwich, Greenwich, CT",
      "streetAddress": "91E5F43F-7AEA-467D-882E-9BD6",
      "zipCode": "44827",
      "fullAddress": "91E5F43F-7AEA-467D-882E-9BD6, 8, DB 44827",
      "phone": "(203) 622-2944",
      "latitude": "6.35765195",
      "longitude": "15.5502006"
    },
    {
      "storeId": "ct-new-canaan-288-elm-st",
      "city": "New",
      "url": "https://local.acmemarkets.com/ct/new-canaan/288-elm-st.html",
      "state": "CT",
      "stateAbbr": "ct",
      "discovered": true,
      "detailsExtracted": true,
      "name": "Grocery Store Near Me - Grocery Delivery Or Pickup -  New Canaan, CT",
      "streetAddress": "91E5F43F-7AEA-467D-882E-9BD6",
      "zipCode": "44827",
      "fullAddress": "91E5F43F-7AEA-467D-882E-9BD6, 8, DB 44827",
      "phone": "(203) 966-0017",
      "latitude": "6.35765195",
      "longitude": "15.5502006"
    },
    {
      "storeId": "ct-riverside-1261-e-putnam-ave",
      "city": "Riverside",
      "url": "https://local.acmemarkets.com/ct/riverside/1261-e-putnam-ave.html",
      "state": "CT",
      "stateAbbr": "ct",
      "discovered": true,
      "detailsExtracted": true,
      "name": "Grocery Store Near Me - Grocery Delivery Or Pickup -  Riverside, CT",
      "streetAddress": "91E5F43F-7AEA-467D-882E-9BD6",
      "zipCode": "44827",
      "fullAddress": "91E5F43F-7AEA-467D-882E-9BD6, 8, DB 44827",
      "phone": "(203) 637-0188",
      "latitude": "6.35765195",
      "longitude": "15.5502006"
    },
    {
      "storeId": "ct-stamford-1201-high-ridge-rd",
      "city": "Stamford",
      "url": "https://local.acmemarkets.com/ct/stamford/1201-high-ridge-rd.html",
      "state": "CT",
      "stateAbbr": "ct",
      "discovered": true,
      "detailsExtracted": true,
      "name": "Grocery Store Near Me - Grocery Delivery Or Pickup -  Stamford, CT",
      "streetAddress": "91E5F43F-7AEA-467D-882E-9BD6",
      "zipCode": "44827",
      "fullAddress": "91E5F43F-7AEA-467D-882E-9BD6, 8, DB 44827",
      "phone": "(203) 321-0429",
      "latitude": "6.35765195",
      "longitude": "15.5502006"
    },
    {
      "storeId": "de-bear-146-fox-hunt-dr",
      "city": "Bear",
      "url": "https://local.acmemarkets.com/de/bear/146-fox-hunt-dr.html",
      "state": "DE",
      "stateAbbr": "de",
      "discovered": true,
      "detailsExtracted": true,
      "name": "Grocery Store Near Me - Grocery Delivery Or Pickup -  Bear, DE",
      "streetAddress": "91E5F43F-7AEA-467D-882E-9BD6",
      "zipCode": "44827",
      "fullAddress": "91E5F43F-7AEA-467D-882E-9BD6, 8, DB 44827",
      "phone": "(302) 836-9380",
      "latitude": "6.35765195",
      "longitude": "15.5502006"
    },
    {
      "storeId": "de-hockessin-128-lantana-dr",
      "city": "Hockessin",
      "url": "https://local.acmemarkets.com/de/hockessin/128-lantana-dr.html",
      "state": "DE",
      "stateAbbr": "de",
      "discovered": true,
      "detailsExtracted": true,
      "name": "Grocery Store Near Me - Grocery Delivery Or Pickup -  Hockessin, DE",
      "streetAddress": "91E5F43F-7AEA-467D-882E-9BD6",
      "zipCode": "44827",
      "fullAddress": "91E5F43F-7AEA-467D-882E-9BD6, 8, DB 44827",
      "phone": "(302) 234-9000",
      "latitude": "6.35765195",
      "longitude": "15.5502006"
    },
    {
      "storeId": "de-middletown-460-e-main-st",
      "city": "Middletown",
      "url": "https://local.acmemarkets.com/de/middletown/460-e-main-st.html",
      "state": "DE",
      "stateAbbr": "de",
      "discovered": true,
      "detailsExtracted": true,
      "name": "Grocery Store Near Me - Grocery Delivery Or Pickup -  Middletown, DE",
      "streetAddress": "91E5F43F-7AEA-467D-882E-9BD6",
      "zipCode": "44827",
      "fullAddress": "91E5F43F-7AEA-467D-882E-9BD6, 8, DB 44827",
      "phone": "(302) 449-1870",
      "latitude": "6.35765195",
      "longitude": "15.5502006"
    },
    {
      "storeId": "de-newark-1-university-plaza",
      "city": "Newark",
      "addressSlug": "1-university-plaza",
      "url": "https://local.acmemarkets.com/de/newark/1-university-plaza.html",
      "state": "Delaware",
      "stateAbbr": "de",
      "discovered": true,
      "detailsExtracted": true,
      "name": "Grocery Store Near Me - Grocery Delivery Or Pickup -  Newark, DE",
      "phone": "(302) 738-9509"
    },
    {
      "storeId": "de-newark-100-grove-lane",
      "city": "Newark",
      "addressSlug": "100-grove-lane",
      "url": "https://local.acmemarkets.com/de/newark/100-grove-lane.html",
      "state": "Delaware",
      "stateAbbr": "de",
      "discovered": true,
      "detailsExtracted": true,
      "name": "Grocery Store Near Me - Grocery Delivery Or Pickup -  Newark, DE",
      "phone": "(302) 286-0425"
    },
    {
      "storeId": "de-newark-100-suburban-dr",
      "city": "Newark",
      "addressSlug": "100-suburban-dr",
      "url": "https://local.acmemarkets.com/de/newark/100-suburban-dr.html",
      "state": "Delaware",
      "stateAbbr": "de",
      "discovered": true,
      "detailsExtracted": true,
      "name": "Grocery Store Near Me - Grocery Delivery Or Pickup -  Newark, DE",
      "phone": "(302) 453-2330"
    },
    {
      "storeId": "de-rehoboth-beach-18578-coastal-hwy-unit-13",
      "city": "Rehoboth",
      "url": "https://local.acmemarkets.com/de/rehoboth-beach/18578-coastal-hwy-unit-13.html",
      "state": "at",
      "stateAbbr": "de",
      "discovered": true,
      "detailsExtracted": true,
      "name": "Grocery Store Near Me - Grocery Delivery Or Pickup -  Rehoboth Beach, DE",
      "streetAddress": "1\":\"18578 Coast",
      "zipCode": "18578",
      "fullAddress": "1\":\"18578 Coast, , at 18578",
      "phone": "(302) 644-1255",
      "latitude": "6.35765195",
      "longitude": "15.5502006"
    },
    {
      "storeId": "de-smyrna-236-e-glenwood-ave",
      "city": "Smyrna",
      "url": "https://local.acmemarkets.com/de/smyrna/236-e-glenwood-ave.html",
      "state": "DE",
      "stateAbbr": "de",
      "discovered": true,
      "detailsExtracted": true,
      "name": "Grocery Store Near Me - Grocery Delivery Or Pickup -  Smyrna, DE",
      "streetAddress": "91E5F43F-7AEA-467D-882E-9BD6",
      "zipCode": "44827",
      "fullAddress": "91E5F43F-7AEA-467D-882E-9BD6, 8, DB 44827",
      "phone": "(302) 653-9600",
      "latitude": "6.35765195",
      "longitude": "15.5502006"
    },
    {
      "storeId": "de-wilmington-1308-centerville-rd",
      "city": "Wilmington",
      "addressSlug": "1308-centerville-rd",
      "url": "https://local.acmemarkets.com/de/wilmington/1308-centerville-rd.html",
      "state": "Delaware",
      "stateAbbr": "de",
      "discovered": true,
      "detailsExtracted": true,
      "name": "Grocery Store Near Me - Grocery Delivery Or Pickup - in Prices Corner, Wilmington, DE",
      "phone": "(302) 994-3660"
    },
    {
      "storeId": "de-wilmington-1401-n-dupont-st",
      "city": "Wilmington",
      "addressSlug": "1401-n-dupont-st",
      "url": "https://local.acmemarkets.com/de/wilmington/1401-n-dupont-st.html",
      "state": "Delaware",
      "stateAbbr": "de",
      "discovered": true,
      "detailsExtracted": true,
      "name": "Grocery Store Near Me - Grocery Delivery Or Pickup - in Trolley Square, Wilmington, DE",
      "phone": "(302) 658-0575"
    },
    {
      "storeId": "de-wilmington-1812-marsh-rd",
      "city": "Wilmington",
      "addressSlug": "1812-marsh-rd",
      "url": "https://local.acmemarkets.com/de/wilmington/1812-marsh-rd.html",
      "state": "Delaware",
      "stateAbbr": "de",
      "discovered": true,
      "detailsExtracted": true,
      "name": "Grocery Store Near Me - Grocery Delivery Or Pickup - in Pike Creek, Wilmington, DE",
      "phone": "(302) 529-8520"
    },
    {
      "storeId": "de-wilmington-1901-concord-pike",
      "city": "Wilmington",
      "addressSlug": "1901-concord-pike",
      "url": "https://local.acmemarkets.com/de/wilmington/1901-concord-pike.html",
      "state": "Delaware",
      "stateAbbr": "de",
      "discovered": true,
      "detailsExtracted": true,
      "name": "Grocery Store Near Me - Grocery Delivery Or Pickup - in Fairfax, Wilmington, DE",
      "phone": "(302) 654-1803"
    },
    {
      "storeId": "de-wilmington-2098-naamans-rd",
      "city": "Wilmington",
      "addressSlug": "2098-naamans-rd",
      "url": "https://local.acmemarkets.com/de/wilmington/2098-naamans-rd.html",
      "state": "Delaware",
      "stateAbbr": "de",
      "discovered": true,
      "detailsExtracted": true,
      "name": "Grocery Store Near Me - Grocery Delivery Or Pickup - in Naamans Road, Wilmington, DE",
      "phone": "(302) 475-4618"
    },
    {
      "storeId": "de-wilmington-4720-limestone-rd",
      "city": "Wilmington",
      "addressSlug": "4720-limestone-rd",
      "url": "https://local.acmemarkets.com/de/wilmington/4720-limestone-rd.html",
      "state": "Delaware",
      "stateAbbr": "de",
      "discovered": true,
      "detailsExtracted": true,
      "name": "Grocery Store Near Me - Grocery Delivery Or Pickup - in Pike Creek, Wilmington, DE",
      "phone": "(302) 998-4465"
    },
    {
      "storeId": "md-centreville-611-railroad-ave",
      "city": "Centreville",
      "url": "https://local.acmemarkets.com/md/centreville/611-railroad-ave.html",
      "state": "MD",
      "stateAbbr": "md",
      "discovered": true,
      "detailsExtracted": true,
      "name": "Grocery Store Near Me - Grocery Delivery Or Pickup -  Centreville, MD",
      "streetAddress": "91E5F43F-7AEA-467D-882E-9BD6",
      "zipCode": "44827",
      "fullAddress": "91E5F43F-7AEA-467D-882E-9BD6, 8, DB 44827",
      "phone": "(443) 262-9150",
      "latitude": "6.35765195",
      "longitude": "15.5502006"
    },
    {
      "storeId": "md-chestertown-711-washington-ave",
      "city": "Chestertown",
      "url": "https://local.acmemarkets.com/md/chestertown/711-washington-ave.html",
      "state": "MD",
      "stateAbbr": "md",
      "discovered": true,
      "detailsExtracted": true,
      "name": "Grocery Store Near Me - Grocery Delivery Or Pickup -  Chestertown, MD",
      "streetAddress": "91E5F43F-7AEA-467D-882E-9BD6",
      "zipCode": "44827",
      "fullAddress": "91E5F43F-7AEA-467D-882E-9BD6, 8, DB 44827",
      "phone": "(410) 778-5641",
      "latitude": "6.35765195",
      "longitude": "15.5502006"
    },
    {
      "storeId": "md-easton-210-w-marlboro-ave",
      "city": "Easton",
      "url": "https://local.acmemarkets.com/md/easton/210-w-marlboro-ave.html",
      "state": "MD",
      "stateAbbr": "md",
      "discovered": true,
      "detailsExtracted": true,
      "name": "Grocery Store Near Me - Grocery Delivery Or Pickup -  Easton, MD",
      "streetAddress": "91E5F43F-7AEA-467D-882E-9BD6",
      "zipCode": "44827",
      "fullAddress": "91E5F43F-7AEA-467D-882E-9BD6, 8, DB 44827",
      "phone": "(410) 822-7073",
      "hours": "6:00AM-12:00AM",
      "latitude": "6.35765195",
      "longitude": "15.5502006"
    },
    {
      "storeId": "md-elkton-101-big-elk-mall",
      "city": "Elkton",
      "url": "https://local.acmemarkets.com/md/elkton/101-big-elk-mall.html",
      "state": "MD",
      "stateAbbr": "md",
      "discovered": true,
      "detailsExtracted": true,
      "name": "Grocery Store Near Me - Grocery Delivery Or Pickup -  Elkton, MD",
      "streetAddress": "91E5F43F-7AEA-467D-882E-9BD6",
      "zipCode": "44827",
      "fullAddress": "91E5F43F-7AEA-467D-882E-9BD6, 8, DB 44827",
      "phone": "(410) 398-4925",
      "latitude": "6.35765195",
      "longitude": "15.5502006"
    },
    {
      "storeId": "md-ocean-city-9507-coastal-hwy",
      "city": "Ocean",
      "url": "https://local.acmemarkets.com/md/ocean-city/9507-coastal-hwy.html",
      "state": "MD",
      "stateAbbr": "md",
      "discovered": true,
      "detailsExtracted": true,
      "name": "Grocery Store Near Me - Grocery Delivery Or Pickup -  Ocean City, MD",
      "streetAddress": "91E5F43F-7AEA-467D-882E-9BD6",
      "zipCode": "44827",
      "fullAddress": "91E5F43F-7AEA-467D-882E-9BD6, 8, DB 44827",
      "phone": "(410) 723-7004",
      "latitude": "6.35765195",
      "longitude": "15.5502006"
    },
    {
      "storeId": "md-salisbury-751-s-salisbury-blvd",
      "city": "Salisbury",
      "url": "https://local.acmemarkets.com/md/salisbury/751-s-salisbury-blvd.html",
      "state": "MD",
      "stateAbbr": "md",
      "discovered": true,
      "detailsExtracted": true,
      "name": "Grocery Store Near Me - Grocery Delivery Or Pickup -  Salisbury, MD",
      "streetAddress": "91E5F43F-7AEA-467D-882E-9BD6",
      "zipCode": "44827",
      "fullAddress": "91E5F43F-7AEA-467D-882E-9BD6, 8, DB 44827",
      "phone": "(410) 742-1343",
      "hours": "6:00AM-12:00AM",
      "latitude": "6.35765195",
      "longitude": "15.5502006"
    },
    {
      "storeId": "nj-allendale-45-de-mercurio-dr",
      "city": "Allendale",
      "url": "https://local.acmemarkets.com/nj/allendale/45-de-mercurio-dr.html",
      "state": "NJ",
      "stateAbbr": "nj",
      "discovered": true,
      "detailsExtracted": true,
      "name": "Grocery Store Near Me - Grocery Delivery Or Pickup -  Allendale, NJ",
      "streetAddress": "91E5F43F-7AEA-467D-882E-9BD6",
      "zipCode": "44827",
      "fullAddress": "91E5F43F-7AEA-467D-882E-9BD6, 8, DB 44827",
      "phone": "(201) 934-3350",
      "hours": "9:00AM-10:00PM",
      "latitude": "6.35765195",
      "longitude": "15.5502006"
    },
    {
      "storeId": "nj-audubon-100-e-black-horse-pike",
      "city": "Audubon",
      "url": "https://local.acmemarkets.com/nj/audubon/100-e-black-horse-pike.html",
      "state": "NJ",
      "stateAbbr": "nj",
      "discovered": true,
      "detailsExtracted": true,
      "name": "Grocery Store Near Me - Grocery Delivery Or Pickup -  Audubon, NJ",
      "streetAddress": "91E5F43F-7AEA-467D-882E-9BD6",
      "zipCode": "44827",
      "fullAddress": "91E5F43F-7AEA-467D-882E-9BD6, 8, DB 44827",
      "phone": "(856) 547-3938",
      "latitude": "6.35765195",
      "longitude": "15.5502006"
    },
    {
      "storeId": "nj-barnegat-912-w-bay-ave",
      "city": "Barnegat",
      "url": "https://local.acmemarkets.com/nj/barnegat/912-w-bay-ave.html",
      "state": "NJ",
      "stateAbbr": "nj",
      "discovered": true,
      "detailsExtracted": true,
      "name": "Grocery Store Near Me - Grocery Delivery Or Pickup -  Barnegat, NJ",
      "streetAddress": "91E5F43F-7AEA-467D-882E-9BD6",
      "zipCode": "44827",
      "fullAddress": "91E5F43F-7AEA-467D-882E-9BD6, 8, DB 44827",
      "phone": "(609) 607-5909",
      "latitude": "6.35765195",
      "longitude": "15.5502006"
    },
    {
      "storeId": "nj-blairstown-152-route-94",
      "city": "Blairstown",
      "url": "https://local.acmemarkets.com/nj/blairstown/152-route-94.html",
      "state": "NJ",
      "stateAbbr": "nj",
      "discovered": true,
      "detailsExtracted": true,
      "name": "Grocery Store Near Me - Grocery Delivery Or Pickup -  Blairstown, NJ",
      "streetAddress": "91E5F43F-7AEA-467D-882E-9BD6",
      "zipCode": "44827",
      "fullAddress": "91E5F43F-7AEA-467D-882E-9BD6, 8, DB 44827",
      "phone": "(908) 362-1790",
      "latitude": "6.35765195",
      "longitude": "15.5502006"
    },
    {
      "storeId": "nj-boonton-550-myrtle-ave",
      "city": "Boonton",
      "url": "https://local.acmemarkets.com/nj/boonton/550-myrtle-ave.html",
      "state": "NJ",
      "stateAbbr": "nj",
      "discovered": true,
      "detailsExtracted": true,
      "name": "Grocery Store Near Me - Grocery Delivery Or Pickup -  Boonton, NJ",
      "streetAddress": "91E5F43F-7AEA-467D-882E-9BD6",
      "zipCode": "44827",
      "fullAddress": "91E5F43F-7AEA-467D-882E-9BD6, 8, DB 44827",
      "phone": "(973) 402-4333",
      "latitude": "6.35765195",
      "longitude": "15.5502006"
    },
    {
      "storeId": "nj-bordentown-260-dunns-mills-rd",
      "city": "Bordentown",
      "url": "https://local.acmemarkets.com/nj/bordentown/260-dunns-mills-rd.html",
      "state": "NJ",
      "stateAbbr": "nj",
      "discovered": true,
      "detailsExtracted": true,
      "name": "Grocery Store Near Me - Grocery Delivery Or Pickup -  Bordentown, NJ",
      "streetAddress": "91E5F43F-7AEA-467D-882E-9BD6",
      "zipCode": "44827",
      "fullAddress": "91E5F43F-7AEA-467D-882E-9BD6, 8, DB 44827",
      "phone": "(609) 298-2014",
      "latitude": "6.35765195",
      "longitude": "15.5502006"
    },
    {
      "storeId": "nj-brigantine-4236-harbor-beach-blvd",
      "city": "Brigantine",
      "url": "https://local.acmemarkets.com/nj/brigantine/4236-harbor-beach-blvd.html",
      "state": "NJ",
      "stateAbbr": "nj",
      "discovered": true,
      "detailsExtracted": true,
      "name": "Grocery Store Near Me - Grocery Delivery Or Pickup -  Brigantine, NJ",
      "streetAddress": "91E5F43F-7AEA-467D-882E-9BD6",
      "zipCode": "44827",
      "fullAddress": "91E5F43F-7AEA-467D-882E-9BD6, 8, DB 44827",
      "phone": "(609) 264-0041",
      "latitude": "6.35765195",
      "longitude": "15.5502006"
    },
    {
      "storeId": "nj-browns-mills-18-broadway-st",
      "city": "Browns",
      "url": "https://local.acmemarkets.com/nj/browns-mills/18-broadway-st.html",
      "state": "NJ",
      "stateAbbr": "nj",
      "discovered": true,
      "detailsExtracted": true,
      "name": "Grocery Store Near Me - Grocery Delivery Or Pickup -  Browns Mills, NJ",
      "streetAddress": "91E5F43F-7AEA-467D-882E-9BD6",
      "zipCode": "44827",
      "fullAddress": "91E5F43F-7AEA-467D-882E-9BD6, 8, DB 44827",
      "phone": "(609) 735-1605",
      "latitude": "6.35765195",
      "longitude": "15.5502006"
    },
    {
      "storeId": "nj-cape-may-315-ocean-st",
      "city": "Cape May",
      "url": "https://local.acmemarkets.com/nj/cape-may/315-ocean-st.html",
      "state": "New Jersey",
      "stateAbbr": "nj",
      "discovered": true,
      "detailsExtracted": true,
      "name": "Grocery Store Near Me - Grocery Delivery Or Pickup -  Cape May, NJ",
      "phone": "(609) 884-7217",
      "latitude": "6.35765195",
      "longitude": "15.5502006"
    },
    {
      "storeId": "nj-cape-may-court-house-11-court-house-south-dennis-rd",
      "city": "Cape May Court House",
      "addressSlug": "11-court-house-south-dennis-rd",
      "url": "https://local.acmemarkets.com/nj/cape-may-court-house/11-court-house-south-dennis-rd.html",
      "state": "New Jersey",
      "stateAbbr": "nj",
      "discovered": true,
      "detailsExtracted": true,
      "name": "Grocery Store Near Me - Grocery Delivery Or Pickup -  Cape May Court House, NJ",
      "phone": "(609) 463-9106",
      "hours": "9:00AM-10:00PM"
    },
    {
      "storeId": "nj-cape-may-court-house-15-avalon-blvd",
      "city": "Cape May Court House",
      "addressSlug": "15-avalon-blvd",
      "url": "https://local.acmemarkets.com/nj/cape-may-court-house/15-avalon-blvd.html",
      "state": "New Jersey",
      "stateAbbr": "nj",
      "discovered": true,
      "detailsExtracted": true,
      "name": "Grocery Store Near Me - Grocery Delivery Or Pickup -  Cape May Court House, NJ",
      "phone": "(609) 463-1995"
    },
    {
      "storeId": "nj-clark-1060-raritan-rd",
      "city": "Clark",
      "url": "https://local.acmemarkets.com/nj/clark/1060-raritan-rd.html",
      "state": "NJ",
      "stateAbbr": "nj",
      "discovered": true,
      "detailsExtracted": true,
      "name": "Grocery Store Near Me - Grocery Delivery Or Pickup -  Clark, NJ",
      "streetAddress": "91E5F43F-7AEA-467D-882E-9BD6",
      "zipCode": "44827",
      "fullAddress": "91E5F43F-7AEA-467D-882E-9BD6, 8, DB 44827",
      "phone": "(732) 340-0056",
      "latitude": "6.35765195",
      "longitude": "15.5502006"
    },
    {
      "storeId": "nj-clayton-20-s-delsea-dr",
      "city": "Clayton",
      "url": "https://local.acmemarkets.com/nj/clayton/20-s-delsea-dr.html",
      "state": "New Jersey",
      "stateAbbr": "nj",
      "discovered": true,
      "detailsExtracted": true,
      "name": "Grocery Store Near Me - Grocery Delivery Or Pickup -  Clayton, NJ",
      "phone": "(856) 881-9884",
      "latitude": "6.35765195",
      "longitude": "15.5502006"
    },
    {
      "storeId": "nj-denville-123-e-main-st",
      "city": "Denville",
      "url": "https://local.acmemarkets.com/nj/denville/123-e-main-st.html",
      "state": "NJ",
      "stateAbbr": "nj",
      "discovered": true,
      "detailsExtracted": true,
      "name": "Grocery Store Near Me - Grocery Delivery Or Pickup -  Denville, NJ",
      "streetAddress": "91E5F43F-7AEA-467D-882E-9BD6",
      "zipCode": "44827",
      "fullAddress": "91E5F43F-7AEA-467D-882E-9BD6, 8, DB 44827",
      "phone": "(973) 586-2215",
      "latitude": "6.35765195",
      "longitude": "15.5502006"
    },
    {
      "storeId": "nj-edgewater-481-river-rd",
      "city": "Edgewater",
      "url": "https://local.acmemarkets.com/nj/edgewater/481-river-rd.html",
      "state": "NJ",
      "stateAbbr": "nj",
      "discovered": true,
      "detailsExtracted": true,
      "name": "Grocery Store Near Me - Grocery Delivery Or Pickup -  Edgewater, NJ",
      "streetAddress": "91E5F43F-7AEA-467D-882E-9BD6",
      "zipCode": "44827",
      "fullAddress": "91E5F43F-7AEA-467D-882E-9BD6, 8, DB 44827",
      "phone": "(201) 840-8006",
      "latitude": "6.35765195",
      "longitude": "15.5502006"
    },
    {
      "storeId": "nj-fair-haven-576-river-rd",
      "city": "Fair",
      "url": "https://local.acmemarkets.com/nj/fair-haven/576-river-rd.html",
      "state": "NJ",
      "stateAbbr": "nj",
      "discovered": true,
      "detailsExtracted": true,
      "name": "Grocery Store Near Me - Grocery Delivery Or Pickup -  Fair Haven, NJ",
      "streetAddress": "91E5F43F-7AEA-467D-882E-9BD6",
      "zipCode": "44827",
      "fullAddress": "91E5F43F-7AEA-467D-882E-9BD6, 8, DB 44827",
      "phone": "(732) 530-7481",
      "latitude": "6.35765195",
      "longitude": "15.5502006"
    },
    {
      "storeId": "nj-fort-lee-2160-lemoine-ave",
      "city": "Fort",
      "url": "https://local.acmemarkets.com/nj/fort-lee/2160-lemoine-ave.html",
      "state": "NJ",
      "stateAbbr": "nj",
      "discovered": true,
      "detailsExtracted": true,
      "name": "Grocery Store Near Me - Grocery Delivery Or Pickup -  Fort Lee, NJ",
      "streetAddress": "91E5F43F-7AEA-467D-882E-9BD6",
      "zipCode": "44827",
      "fullAddress": "91E5F43F-7AEA-467D-882E-9BD6, 8, DB 44827",
      "phone": "(201) 944-1145",
      "hours": "9:00AM-10:00PM",
      "latitude": "6.35765195",
      "longitude": "15.5502006"
    },
    {
      "storeId": "nj-freehold-3241-us-hwy-9",
      "city": "Freehold",
      "url": "https://local.acmemarkets.com/nj/freehold/3241-us-hwy-9.html",
      "state": "NJ",
      "stateAbbr": "nj",
      "discovered": true,
      "detailsExtracted": true,
      "name": "Grocery Store Near Me - Grocery Delivery Or Pickup -  Freehold, NJ",
      "streetAddress": "91E5F43F-7AEA-467D-882E-9BD6",
      "zipCode": "44827",
      "fullAddress": "91E5F43F-7AEA-467D-882E-9BD6, 8, DB 44827",
      "phone": "(732) 863-6501",
      "latitude": "6.35765195",
      "longitude": "15.5502006"
    },
    {
      "storeId": "nj-haddonfield-40-ellis-st",
      "city": "Haddonfield",
      "url": "https://local.acmemarkets.com/nj/haddonfield/40-ellis-st.html",
      "state": "NJ",
      "stateAbbr": "nj",
      "discovered": true,
      "detailsExtracted": true,
      "name": "Grocery Store Near Me - Grocery Delivery Or Pickup -  Haddonfield, NJ",
      "streetAddress": "91E5F43F-7AEA-467D-882E-9BD6",
      "zipCode": "44827",
      "fullAddress": "91E5F43F-7AEA-467D-882E-9BD6, 8, DB 44827",
      "phone": "(856) 429-0177",
      "latitude": "6.35765195",
      "longitude": "15.5502006"
    },
    {
      "storeId": "nj-hoboken-614-clinton-st",
      "city": "Hoboken",
      "url": "https://local.acmemarkets.com/nj/hoboken/614-clinton-st.html",
      "state": "NJ",
      "stateAbbr": "nj",
      "discovered": true,
      "detailsExtracted": true,
      "name": "Grocery Store Near Me - Grocery Delivery Or Pickup -  Hoboken, NJ",
      "streetAddress": "91E5F43F-7AEA-467D-882E-9BD6",
      "zipCode": "44827",
      "fullAddress": "91E5F43F-7AEA-467D-882E-9BD6, 8, DB 44827",
      "phone": "(201) 795-5005",
      "hours": "9:00AM-10:00PM",
      "latitude": "6.35765195",
      "longitude": "15.5502006"
    },
    {
      "storeId": "nj-jersey-city-125-18th-st",
      "city": "Jersey City",
      "addressSlug": "125-18th-st",
      "url": "https://local.acmemarkets.com/nj/jersey-city/125-18th-st.html",
      "state": "New Jersey",
      "stateAbbr": "nj",
      "discovered": true,
      "detailsExtracted": true,
      "name": "Grocery Store Near Me - Grocery Delivery Or Pickup - in Downtown Jersey City, Jersey City, NJ",
      "phone": "(201) 418-0580"
    },
    {
      "storeId": "nj-jersey-city-321-route-440",
      "city": "Jersey City",
      "addressSlug": "321-route-440",
      "url": "https://local.acmemarkets.com/nj/jersey-city/321-route-440.html",
      "state": "New Jersey",
      "stateAbbr": "nj",
      "discovered": true,
      "detailsExtracted": true,
      "name": "Grocery Store Near Me - Grocery Delivery Or Pickup - in Journal Square, Jersey City, NJ",
      "phone": "(201) 946-2525"
    },
    {
      "storeId": "nj-kenilworth-801-kenilworth-blvd",
      "city": "Kenilworth",
      "url": "https://local.acmemarkets.com/nj/kenilworth/801-kenilworth-blvd.html",
      "state": "NJ",
      "stateAbbr": "nj",
      "discovered": true,
      "detailsExtracted": true,
      "name": "Grocery Store Near Me - Grocery Delivery Or Pickup -  Kenilworth, NJ",
      "streetAddress": "91E5F43F-7AEA-467D-882E-9BD6",
      "zipCode": "44827",
      "fullAddress": "91E5F43F-7AEA-467D-882E-9BD6, 8, DB 44827",
      "phone": "(908) 259-0725",
      "latitude": "6.35765195",
      "longitude": "15.5502006"
    },
    {
      "storeId": "nj-lincroft-616-newman-springs-rd",
      "city": "Lincroft",
      "url": "https://local.acmemarkets.com/nj/lincroft/616-newman-springs-rd.html",
      "state": "NJ",
      "stateAbbr": "nj",
      "discovered": true,
      "detailsExtracted": true,
      "name": "Grocery Store Near Me - Grocery Delivery Or Pickup -  Lincroft, NJ",
      "streetAddress": "91E5F43F-7AEA-467D-882E-9BD6",
      "zipCode": "44827",
      "fullAddress": "91E5F43F-7AEA-467D-882E-9BD6, 8, DB 44827",
      "phone": "(732) 936-0668",
      "latitude": "6.35765195",
      "longitude": "15.5502006"
    },
    {
      "storeId": "nj-little-silver-507-prospect-ave",
      "city": "Little",
      "url": "https://local.acmemarkets.com/nj/little-silver/507-prospect-ave.html",
      "state": "NJ",
      "stateAbbr": "nj",
      "discovered": true,
      "detailsExtracted": true,
      "name": "Grocery Store Near Me - Grocery Delivery Or Pickup -  Little Silver, NJ",
      "streetAddress": "91E5F43F-7AEA-467D-882E-9BD6",
      "zipCode": "44827",
      "fullAddress": "91E5F43F-7AEA-467D-882E-9BD6, 8, DB 44827",
      "phone": "(732) 345-9910",
      "latitude": "6.35765195",
      "longitude": "15.5502006"
    },
    {
      "storeId": "nj-long-beach-township-9600-long-beach-blvd",
      "city": "Long",
      "url": "https://local.acmemarkets.com/nj/long-beach-township/9600-long-beach-blvd.html",
      "state": "NJ",
      "stateAbbr": "nj",
      "discovered": true,
      "detailsExtracted": true,
      "name": "Grocery Store Near Me - Grocery Delivery Or Pickup -  Long Beach Township, NJ",
      "streetAddress": "91E5F43F-7AEA-467D-882E-9BD6",
      "zipCode": "44827",
      "fullAddress": "91E5F43F-7AEA-467D-882E-9BD6, 8, DB 44827",
      "phone": "(609) 492-0510",
      "latitude": "6.35765195",
      "longitude": "15.5502006"
    },
    {
      "storeId": "nj-mahwah-125-franklin-turnpike",
      "city": "Mahwah",
      "url": "https://local.acmemarkets.com/nj/mahwah/125-franklin-turnpike.html",
      "state": "NJ",
      "stateAbbr": "nj",
      "discovered": true,
      "detailsExtracted": true,
      "name": "Grocery Store Near Me - Grocery Delivery Or Pickup -  Mahwah, NJ",
      "streetAddress": "91E5F43F-7AEA-467D-882E-9BD6",
      "zipCode": "44827",
      "fullAddress": "91E5F43F-7AEA-467D-882E-9BD6, 8, DB 44827",
      "phone": "(201) 529-9775",
      "latitude": "6.35765195",
      "longitude": "15.5502006"
    },
    {
      "storeId": "nj-manahawkin-609-e-bay-ave",
      "city": "Manahawkin",
      "url": "https://local.acmemarkets.com/nj/manahawkin/609-e-bay-ave.html",
      "state": "NJ",
      "stateAbbr": "nj",
      "discovered": true,
      "detailsExtracted": true,
      "name": "Grocery Store Near Me - Grocery Delivery Or Pickup -  Manahawkin, NJ",
      "streetAddress": "91E5F43F-7AEA-467D-882E-9BD6",
      "zipCode": "44827",
      "fullAddress": "91E5F43F-7AEA-467D-882E-9BD6, 8, DB 44827",
      "phone": "(609) 597-4009",
      "latitude": "6.35765195",
      "longitude": "15.5502006"
    },
    {
      "storeId": "nj-maple-shade-300-s-lenola-rd",
      "city": "Maple Shade",
      "addressSlug": "300-s-lenola-rd",
      "url": "https://local.acmemarkets.com/nj/maple-shade/300-s-lenola-rd.html",
      "state": "New Jersey",
      "stateAbbr": "nj",
      "discovered": true,
      "detailsExtracted": true,
      "name": "Grocery Store Near Me - Grocery Delivery Or Pickup -  Maple Shade, NJ",
      "phone": "(856) 778-2028"
    },
    {
      "storeId": "nj-maple-shade-41-w-main-st",
      "city": "Maple Shade",
      "addressSlug": "41-w-main-st",
      "url": "https://local.acmemarkets.com/nj/maple-shade/41-w-main-st.html",
      "state": "New Jersey",
      "stateAbbr": "nj",
      "discovered": true,
      "detailsExtracted": true,
      "name": "Grocery Store Near Me - Grocery Delivery Or Pickup -  Maple Shade, NJ",
      "phone": "(856) 779-9891"
    },
    {
      "storeId": "nj-mays-landing-4454-black-horse-pike",
      "city": "Mays",
      "url": "https://local.acmemarkets.com/nj/mays-landing/4454-black-horse-pike.html",
      "state": "NJ",
      "stateAbbr": "nj",
      "discovered": true,
      "detailsExtracted": true,
      "name": "Grocery Store Near Me - Grocery Delivery Or Pickup -  Mays Landing, NJ",
      "streetAddress": "91E5F43F-7AEA-467D-882E-9BD6",
      "zipCode": "44827",
      "fullAddress": "91E5F43F-7AEA-467D-882E-9BD6, 8, DB 44827",
      "phone": "(609) 625-4710",
      "latitude": "6.35765195",
      "longitude": "15.5502006"
    },
    {
      "storeId": "nj-medford-175-route-70",
      "city": "Medford",
      "url": "https://local.acmemarkets.com/nj/medford/175-route-70.html",
      "state": "NJ",
      "stateAbbr": "nj",
      "discovered": true,
      "detailsExtracted": true,
      "name": "Grocery Store Near Me - Grocery Delivery Or Pickup -  Medford, NJ",
      "streetAddress": "91E5F43F-7AEA-467D-882E-9BD6",
      "zipCode": "44827",
      "fullAddress": "91E5F43F-7AEA-467D-882E-9BD6, 8, DB 44827",
      "phone": "(609) 953-0006",
      "latitude": "6.35765195",
      "longitude": "15.5502006"
    },
    {
      "storeId": "nj-midland-park-136-lake-st",
      "city": "Midland",
      "url": "https://local.acmemarkets.com/nj/midland-park/136-lake-st.html",
      "state": "NJ",
      "stateAbbr": "nj",
      "discovered": true,
      "detailsExtracted": true,
      "name": "Grocery Store Near Me - Grocery Delivery Or Pickup -  Midland Park, NJ",
      "streetAddress": "91E5F43F-7AEA-467D-882E-9BD6",
      "zipCode": "44827",
      "fullAddress": "91E5F43F-7AEA-467D-882E-9BD6, 8, DB 44827",
      "phone": "(201) 493-7050",
      "hours": "9:00AM-10:00PM",
      "latitude": "6.35765195",
      "longitude": "15.5502006"
    },
    {
      "storeId": "nj-montclair-510-valley-rd",
      "city": "Montclair",
      "url": "https://local.acmemarkets.com/nj/montclair/510-valley-rd.html",
      "state": "NJ",
      "stateAbbr": "nj",
      "discovered": true,
      "detailsExtracted": true,
      "name": "Grocery Store Near Me - Grocery Delivery Or Pickup -  Montclair, NJ",
      "streetAddress": "91E5F43F-7AEA-467D-882E-9BD6",
      "zipCode": "44827",
      "fullAddress": "91E5F43F-7AEA-467D-882E-9BD6, 8, DB 44827",
      "phone": "(973) 746-0058",
      "latitude": "6.35765195",
      "longitude": "15.5502006"
    },
    {
      "storeId": "nj-mount-holly-531-high-st",
      "city": "Mount",
      "url": "https://local.acmemarkets.com/nj/mount-holly/531-high-st.html",
      "state": "NJ",
      "stateAbbr": "nj",
      "discovered": true,
      "detailsExtracted": true,
      "name": "Grocery Store Near Me - Grocery Delivery Or Pickup -  Mount Holly, NJ",
      "streetAddress": "91E5F43F-7AEA-467D-882E-9BD6",
      "zipCode": "44827",
      "fullAddress": "91E5F43F-7AEA-467D-882E-9BD6, 8, DB 44827",
      "phone": "(609) 702-1776",
      "latitude": "6.35765195",
      "longitude": "15.5502006"
    },
    {
      "storeId": "nj-new-providence-1260-springfield-ave",
      "city": "New",
      "url": "https://local.acmemarkets.com/nj/new-providence/1260-springfield-ave.html",
      "state": "NJ",
      "stateAbbr": "nj",
      "discovered": true,
      "detailsExtracted": true,
      "name": "Grocery Store Near Me - Grocery Delivery Or Pickup -  New Providence, NJ",
      "streetAddress": "91E5F43F-7AEA-467D-882E-9BD6",
      "zipCode": "44827",
      "fullAddress": "91E5F43F-7AEA-467D-882E-9BD6, 8, DB 44827",
      "phone": "(908) 286-1725",
      "latitude": "6.35765195",
      "longitude": "15.5502006"
    },
    {
      "storeId": "nj-north-cape-may-3845-bayshore-rd",
      "city": "North",
      "url": "https://local.acmemarkets.com/nj/north-cape-may/3845-bayshore-rd.html",
      "state": "NJ",
      "stateAbbr": "nj",
      "discovered": true,
      "detailsExtracted": true,
      "name": "Grocery Store Near Me - Grocery Delivery Or Pickup -  North Cape May, NJ",
      "streetAddress": "91E5F43F-7AEA-467D-882E-9BD6",
      "zipCode": "44827",
      "fullAddress": "91E5F43F-7AEA-467D-882E-9BD6, 8, DB 44827",
      "phone": "(609) 884-1203",
      "hours": "9:00AM-10:00PM",
      "latitude": "6.35765195",
      "longitude": "15.5502006"
    },
    {
      "storeId": "nj-north-wildwood-2400-delaware-ave",
      "city": "North",
      "url": "https://local.acmemarkets.com/nj/north-wildwood/2400-delaware-ave.html",
      "state": "NJ",
      "stateAbbr": "nj",
      "discovered": true,
      "detailsExtracted": true,
      "name": "Grocery Store Near Me - Grocery Delivery Or Pickup -  North Wildwood, NJ",
      "streetAddress": "91E5F43F-7AEA-467D-882E-9BD6",
      "zipCode": "44827",
      "fullAddress": "91E5F43F-7AEA-467D-882E-9BD6, 8, DB 44827",
      "phone": "(609) 846-9010",
      "latitude": "6.35765195",
      "longitude": "15.5502006"
    },
    {
      "storeId": "nj-oak-ridge-5774-berkshire-valley-rd",
      "city": "Oak",
      "url": "https://local.acmemarkets.com/nj/oak-ridge/5774-berkshire-valley-rd.html",
      "state": "NJ",
      "stateAbbr": "nj",
      "discovered": true,
      "detailsExtracted": true,
      "name": "Grocery Store Near Me - Grocery Delivery Or Pickup -  Oak Ridge, NJ",
      "streetAddress": "91E5F43F-7AEA-467D-882E-9BD6",
      "zipCode": "44827",
      "fullAddress": "91E5F43F-7AEA-467D-882E-9BD6, 8, DB 44827",
      "phone": "(973) 697-3005",
      "latitude": "6.35765195",
      "longitude": "15.5502006"
    },
    {
      "storeId": "nj-ocean-city-3428-simpson-ave",
      "city": "Ocean City",
      "addressSlug": "3428-simpson-ave",
      "url": "https://local.acmemarkets.com/nj/ocean-city/3428-simpson-ave.html",
      "state": "New Jersey",
      "stateAbbr": "nj",
      "discovered": true,
      "detailsExtracted": true,
      "name": "Grocery Store Near Me - Grocery Delivery Or Pickup -  Ocean City, NJ",
      "phone": "(609) 525-2160"
    },
    {
      "storeId": "nj-ocean-city-800-west-ave",
      "city": "Ocean City",
      "addressSlug": "800-west-ave",
      "url": "https://local.acmemarkets.com/nj/ocean-city/800-west-ave.html",
      "state": "New Jersey",
      "stateAbbr": "nj",
      "discovered": true,
      "detailsExtracted": true,
      "name": "Grocery Store Near Me - Grocery Delivery Or Pickup -  Ocean City, NJ",
      "phone": "(609) 814-9780"
    },
    {
      "storeId": "nj-ocean-view-2087-shore-rd",
      "city": "Ocean",
      "url": "https://local.acmemarkets.com/nj/ocean-view/2087-shore-rd.html",
      "state": "NJ",
      "stateAbbr": "nj",
      "discovered": true,
      "detailsExtracted": true,
      "name": "Grocery Store Near Me - Grocery Delivery Or Pickup -  Ocean View, NJ",
      "streetAddress": "91E5F43F-7AEA-467D-882E-9BD6",
      "zipCode": "44827",
      "fullAddress": "91E5F43F-7AEA-467D-882E-9BD6, 8, DB 44827",
      "phone": "(609) 624-9004",
      "latitude": "6.35765195",
      "longitude": "15.5502006"
    },
    {
      "storeId": "nj-old-bridge-3500-route-9",
      "city": "Old",
      "url": "https://local.acmemarkets.com/nj/old-bridge/3500-route-9.html",
      "state": "NJ",
      "stateAbbr": "nj",
      "discovered": true,
      "detailsExtracted": true,
      "name": "Grocery Store Near Me - Grocery Delivery Or Pickup -  Old Bridge, NJ",
      "streetAddress": "91E5F43F-7AEA-467D-882E-9BD6",
      "zipCode": "44827",
      "fullAddress": "91E5F43F-7AEA-467D-882E-9BD6, 8, DB 44827",
      "phone": "(732) 607-9275",
      "latitude": "6.35765195",
      "longitude": "15.5502006"
    },
    {
      "storeId": "nj-pennsville-251-n-broadway",
      "city": "Pennsville",
      "url": "https://local.acmemarkets.com/nj/pennsville/251-n-broadway.html",
      "state": "NJ",
      "stateAbbr": "nj",
      "discovered": true,
      "detailsExtracted": true,
      "name": "Grocery Store Near Me - Grocery Delivery Or Pickup -  Pennsville, NJ",
      "streetAddress": "91E5F43F-7AEA-467D-882E-9BD6",
      "zipCode": "44827",
      "fullAddress": "91E5F43F-7AEA-467D-882E-9BD6, 8, DB 44827",
      "phone": "(856) 678-4213",
      "latitude": "6.35765195",
      "longitude": "15.5502006"
    },
    {
      "storeId": "nj-randolph-690-millbrook-ave",
      "city": "Randolph",
      "url": "https://local.acmemarkets.com/nj/randolph/690-millbrook-ave.html",
      "state": "NJ",
      "stateAbbr": "nj",
      "discovered": true,
      "detailsExtracted": true,
      "name": "Grocery Store Near Me - Grocery Delivery Or Pickup -  Randolph, NJ",
      "streetAddress": "91E5F43F-7AEA-467D-882E-9BD6",
      "zipCode": "44827",
      "fullAddress": "91E5F43F-7AEA-467D-882E-9BD6, 8, DB 44827",
      "phone": "(973) 895-2699",
      "latitude": "6.35765195",
      "longitude": "15.5502006"
    },
    {
      "storeId": "nj-runnemede-501-e-evesham-rd",
      "city": "Runnemede",
      "url": "https://local.acmemarkets.com/nj/runnemede/501-e-evesham-rd.html",
      "state": "NJ",
      "stateAbbr": "nj",
      "discovered": true,
      "detailsExtracted": true,
      "name": "Grocery Store Near Me - Grocery Delivery Or Pickup -  Runnemede, NJ",
      "streetAddress": "91E5F43F-7AEA-467D-882E-9BD6",
      "zipCode": "44827",
      "fullAddress": "91E5F43F-7AEA-467D-882E-9BD6, 8, DB 44827",
      "phone": "(856) 939-5403",
      "latitude": "6.35765195",
      "longitude": "15.5502006"
    },
    {
      "storeId": "nj-saddle-brook-75-mayhill-st",
      "city": "Saddle",
      "url": "https://local.acmemarkets.com/nj/saddle-brook/75-mayhill-st.html",
      "state": "NJ",
      "stateAbbr": "nj",
      "discovered": true,
      "detailsExtracted": true,
      "name": "Grocery Store Near Me - Grocery Delivery Or Pickup -  Saddle Brook, NJ",
      "streetAddress": "91E5F43F-7AEA-467D-882E-9BD6",
      "zipCode": "44827",
      "fullAddress": "91E5F43F-7AEA-467D-882E-9BD6, 8, DB 44827",
      "phone": "(201) 712-1130",
      "latitude": "6.35765195",
      "longitude": "15.5502006"
    },
    {
      "storeId": "nj-sea-isle-city-6212-landis-ave",
      "city": "Sea",
      "url": "https://local.acmemarkets.com/nj/sea-isle-city/6212-landis-ave.html",
      "state": "NJ",
      "stateAbbr": "nj",
      "discovered": true,
      "detailsExtracted": true,
      "name": "Grocery Store Near Me - Grocery Delivery Or Pickup -  Sea Isle City, NJ",
      "streetAddress": "91E5F43F-7AEA-467D-882E-9BD6",
      "zipCode": "44827",
      "fullAddress": "91E5F43F-7AEA-467D-882E-9BD6, 8, DB 44827",
      "phone": "(609) 263-1510",
      "latitude": "6.35765195",
      "longitude": "15.5502006"
    },
    {
      "storeId": "nj-seaside-heights-5-ortley-plaza",
      "city": "Seaside",
      "url": "https://local.acmemarkets.com/nj/seaside-heights/5-ortley-plaza.html",
      "state": "NJ",
      "stateAbbr": "nj",
      "discovered": true,
      "detailsExtracted": true,
      "name": "Grocery Store Near Me - Grocery Delivery Or Pickup -  Seaside Heights, NJ",
      "streetAddress": "91E5F43F-7AEA-467D-882E-9BD6",
      "zipCode": "44827",
      "fullAddress": "91E5F43F-7AEA-467D-882E-9BD6, 8, DB 44827",
      "phone": "(732) 830-0880",
      "latitude": "6.35765195",
      "longitude": "15.5502006"
    },
    {
      "storeId": "nj-sewell-415-egg-harbor-rd",
      "city": "Sewell",
      "url": "https://local.acmemarkets.com/nj/sewell/415-egg-harbor-rd.html",
      "state": "NJ",
      "stateAbbr": "nj",
      "discovered": true,
      "detailsExtracted": true,
      "name": "Grocery Store Near Me - Grocery Delivery Or Pickup -  Sewell, NJ",
      "streetAddress": "91E5F43F-7AEA-467D-882E-9BD6",
      "zipCode": "44827",
      "fullAddress": "91E5F43F-7AEA-467D-882E-9BD6, 8, DB 44827",
      "phone": "(856) 256-8852",
      "latitude": "6.35765195",
      "longitude": "15.5502006"
    },
    {
      "storeId": "nj-sicklerville-515-berlin-cross-keys-rd",
      "city": "Sicklerville",
      "url": "https://local.acmemarkets.com/nj/sicklerville/515-berlin-cross-keys-rd.html",
      "state": "NJ",
      "stateAbbr": "nj",
      "discovered": true,
      "detailsExtracted": true,
      "name": "Grocery Store Near Me - Grocery Delivery Or Pickup -  Sicklerville, NJ",
      "streetAddress": "91E5F43F-7AEA-467D-882E-9BD6",
      "zipCode": "44827",
      "fullAddress": "91E5F43F-7AEA-467D-882E-9BD6, 8, DB 44827",
      "phone": "(856) 728-3674",
      "latitude": "6.35765195",
      "longitude": "15.5502006"
    },
    {
      "storeId": "nj-somers-point-212-new-rd",
      "city": "Somers",
      "url": "https://local.acmemarkets.com/nj/somers-point/212-new-rd.html",
      "state": "NJ",
      "stateAbbr": "nj",
      "discovered": true,
      "detailsExtracted": true,
      "name": "Grocery Store Near Me - Grocery Delivery Or Pickup -  Somers Point, NJ",
      "streetAddress": "91E5F43F-7AEA-467D-882E-9BD6",
      "zipCode": "44827",
      "fullAddress": "91E5F43F-7AEA-467D-882E-9BD6, 8, DB 44827",
      "phone": "(609) 653-6853",
      "latitude": "6.35765195",
      "longitude": "15.5502006"
    },
    {
      "storeId": "nj-sussex-455-route-23-n",
      "city": "Sussex",
      "url": "https://local.acmemarkets.com/nj/sussex/455-route-23-n.html",
      "state": "NJ",
      "stateAbbr": "nj",
      "discovered": true,
      "detailsExtracted": true,
      "name": "Grocery Store Near Me - Grocery Delivery Or Pickup -  Sussex, NJ",
      "streetAddress": "91E5F43F-7AEA-467D-882E-9BD6",
      "zipCode": "44827",
      "fullAddress": "91E5F43F-7AEA-467D-882E-9BD6, 8, DB 44827",
      "phone": "(973) 702-4020",
      "latitude": "6.35765195",
      "longitude": "15.5502006"
    },
    {
      "storeId": "nj-swedesboro-1619-center-square-rd",
      "city": "Swedesboro",
      "url": "https://local.acmemarkets.com/nj/swedesboro/1619-center-square-rd.html",
      "state": "NJ",
      "stateAbbr": "nj",
      "discovered": true,
      "detailsExtracted": true,
      "name": "Grocery Store Near Me - Grocery Delivery Or Pickup -  Swedesboro, NJ",
      "streetAddress": "91E5F43F-7AEA-467D-882E-9BD6",
      "zipCode": "44827",
      "fullAddress": "91E5F43F-7AEA-467D-882E-9BD6, 8, DB 44827",
      "phone": "(856) 467-8936",
      "latitude": "6.35765195",
      "longitude": "15.5502006"
    },
    {
      "storeId": "nj-trenton-4400-s-broad-st",
      "city": "Trenton",
      "addressSlug": "4400-s-broad-st",
      "url": "https://local.acmemarkets.com/nj/trenton/4400-s-broad-st.html",
      "state": "New Jersey",
      "stateAbbr": "nj",
      "discovered": true,
      "detailsExtracted": true,
      "name": "Grocery Store Near Me - Grocery Delivery Or Pickup -  Trenton, NJ",
      "phone": "(609) 888-9898"
    },
    {
      "storeId": "nj-trenton-953-route-33",
      "city": "Trenton",
      "addressSlug": "953-route-33",
      "url": "https://local.acmemarkets.com/nj/trenton/953-route-33.html",
      "state": "New Jersey",
      "stateAbbr": "nj",
      "discovered": true,
      "detailsExtracted": true,
      "name": "Grocery Store Near Me - Grocery Delivery Or Pickup -  Trenton, NJ",
      "phone": "(609) 890-2551"
    },
    {
      "storeId": "nj-tuckerton-425-us-hwy-9",
      "city": "Tuckerton",
      "url": "https://local.acmemarkets.com/nj/tuckerton/425-us-hwy-9.html",
      "state": "NJ",
      "stateAbbr": "nj",
      "discovered": true,
      "detailsExtracted": true,
      "name": "Grocery Store Near Me - Grocery Delivery Or Pickup -  Tuckerton, NJ",
      "streetAddress": "91E5F43F-7AEA-467D-882E-9BD6",
      "zipCode": "44827",
      "fullAddress": "91E5F43F-7AEA-467D-882E-9BD6, 8, DB 44827",
      "phone": "(609) 296-9303",
      "latitude": "6.35765195",
      "longitude": "15.5502006"
    },
    {
      "storeId": "nj-ventnor-city-5100-wellington-ave",
      "city": "Ventnor",
      "url": "https://local.acmemarkets.com/nj/ventnor-city/5100-wellington-ave.html",
      "state": "NJ",
      "stateAbbr": "nj",
      "discovered": true,
      "detailsExtracted": true,
      "name": "Grocery Store Near Me - Grocery Delivery Or Pickup -  Ventnor City, NJ",
      "streetAddress": "91E5F43F-7AEA-467D-882E-9BD6",
      "zipCode": "44827",
      "fullAddress": "91E5F43F-7AEA-467D-882E-9BD6, 8, DB 44827",
      "phone": "(609) 823-0020",
      "latitude": "6.35765195",
      "longitude": "15.5502006"
    },
    {
      "storeId": "nj-vernon-530-rt-515-unit-1",
      "city": "Vernon",
      "url": "https://local.acmemarkets.com/nj/vernon/530-rt-515-unit-1.html",
      "state": "NJ",
      "stateAbbr": "nj",
      "discovered": true,
      "detailsExtracted": true,
      "name": "Grocery Store Near Me - Grocery Delivery Or Pickup -  Vernon, NJ",
      "streetAddress": "91E5F43F-7AEA-467D-882E-9BD6",
      "zipCode": "44827",
      "fullAddress": "91E5F43F-7AEA-467D-882E-9BD6, 8, DB 44827",
      "phone": "(973) 764-5350",
      "latitude": "6.35765195",
      "longitude": "15.5502006"
    },
    {
      "storeId": "nj-vineland-301-s-main-rd",
      "city": "Vineland",
      "url": "https://local.acmemarkets.com/nj/vineland/301-s-main-rd.html",
      "state": "NJ",
      "stateAbbr": "nj",
      "discovered": true,
      "detailsExtracted": true,
      "name": "Grocery Store Near Me - Grocery Delivery Or Pickup -  Vineland, NJ",
      "streetAddress": "91E5F43F-7AEA-467D-882E-9BD6",
      "zipCode": "44827",
      "fullAddress": "91E5F43F-7AEA-467D-882E-9BD6, 8, DB 44827",
      "phone": "(856) 507-1101",
      "latitude": "6.35765195",
      "longitude": "15.5502006"
    },
    {
      "storeId": "nj-voorhees-700-haddonfield-berlin-rd",
      "city": "Voorhees",
      "url": "https://local.acmemarkets.com/nj/voorhees/700-haddonfield-berlin-rd.html",
      "state": "NJ",
      "stateAbbr": "nj",
      "discovered": true,
      "detailsExtracted": true,
      "name": "Grocery Store Near Me - Grocery Delivery Or Pickup -  Voorhees, NJ",
      "streetAddress": "91E5F43F-7AEA-467D-882E-9BD6",
      "zipCode": "44827",
      "fullAddress": "91E5F43F-7AEA-467D-882E-9BD6, 8, DB 44827",
      "phone": "(856) 782-1122",
      "latitude": "6.35765195",
      "longitude": "15.5502006"
    },
    {
      "storeId": "nj-wall-township-2007-route-35",
      "city": "Wall",
      "url": "https://local.acmemarkets.com/nj/wall-township/2007-route-35.html",
      "state": "NJ",
      "stateAbbr": "nj",
      "discovered": true,
      "detailsExtracted": true,
      "name": "Grocery Store Near Me - Grocery Delivery Or Pickup -  Wall Township, NJ",
      "streetAddress": "91E5F43F-7AEA-467D-882E-9BD6",
      "zipCode": "44827",
      "fullAddress": "91E5F43F-7AEA-467D-882E-9BD6, 8, DB 44827",
      "phone": "(732) 282-1630",
      "latitude": "6.35765195",
      "longitude": "15.5502006"
    },
    {
      "storeId": "nj-warren-177-washington-valley-rd",
      "city": "Warren",
      "url": "https://local.acmemarkets.com/nj/warren/177-washington-valley-rd.html",
      "state": "NJ",
      "stateAbbr": "nj",
      "discovered": true,
      "detailsExtracted": true,
      "name": "Grocery Store Near Me - Grocery Delivery Or Pickup -  Warren, NJ",
      "streetAddress": "91E5F43F-7AEA-467D-882E-9BD6",
      "zipCode": "44827",
      "fullAddress": "91E5F43F-7AEA-467D-882E-9BD6, 8, DB 44827",
      "phone": "(732) 764-3800",
      "latitude": "6.35765195",
      "longitude": "15.5502006"
    },
    {
      "storeId": "nj-west-new-york-19-21-ave-at-port-imperial",
      "city": "West",
      "url": "https://local.acmemarkets.com/nj/west-new-york/19-21-ave-at-port-imperial.html",
      "state": "NJ",
      "stateAbbr": "nj",
      "discovered": true,
      "detailsExtracted": true,
      "name": "Grocery Store Near Me - Grocery Delivery Or Pickup -  West New York, NJ",
      "streetAddress": "91E5F43F-7AEA-467D-882E-9BD6",
      "zipCode": "44827",
      "fullAddress": "91E5F43F-7AEA-467D-882E-9BD6, 8, DB 44827",
      "phone": "(201) 553-1030",
      "latitude": "6.35765195",
      "longitude": "15.5502006"
    },
    {
      "storeId": "nj-westmont-400-w-cuthbert-blvd",
      "city": "Westmont",
      "url": "https://local.acmemarkets.com/nj/westmont/400-w-cuthbert-blvd.html",
      "state": "NJ",
      "stateAbbr": "nj",
      "discovered": true,
      "detailsExtracted": true,
      "name": "Grocery Store Near Me - Grocery Delivery Or Pickup -  Westmont, NJ",
      "streetAddress": "91E5F43F-7AEA-467D-882E-9BD6",
      "zipCode": "44827",
      "fullAddress": "91E5F43F-7AEA-467D-882E-9BD6, 8, DB 44827",
      "phone": "(856) 858-2226",
      "latitude": "6.35765195",
      "longitude": "15.5502006"
    },
    {
      "storeId": "nj-wildwood-5300-park-blvd",
      "city": "Wildwood",
      "url": "https://local.acmemarkets.com/nj/wildwood/5300-park-blvd.html",
      "state": "NJ",
      "stateAbbr": "nj",
      "discovered": true,
      "detailsExtracted": true,
      "name": "Grocery Store Near Me - Grocery Delivery Or Pickup -  Wildwood, NJ",
      "streetAddress": "91E5F43F-7AEA-467D-882E-9BD6",
      "zipCode": "44827",
      "fullAddress": "91E5F43F-7AEA-467D-882E-9BD6, 8, DB 44827",
      "phone": "(609) 522-7165",
      "latitude": "6.35765195",
      "longitude": "15.5502006"
    },
    {
      "storeId": "nj-willingboro-23-levitt-pkwy",
      "city": "Y",
      "url": "https://local.acmemarkets.com/nj/willingboro/23-levitt-pkwy.html",
      "state": "kR",
      "stateAbbr": "nj",
      "discovered": true,
      "detailsExtracted": true,
      "name": "Grocery Store Near Me - Grocery Delivery Or Pickup -  Willingboro, NJ",
      "streetAddress": "2HRCT",
      "zipCode": "27568",
      "fullAddress": "2HRCT, Y, kR 27568",
      "phone": "(609) 871-0670",
      "latitude": "6.35765195",
      "longitude": "15.5502006"
    },
    {
      "storeId": "nj-woodbury-631-mantua-pike",
      "city": "Woodbury",
      "url": "https://local.acmemarkets.com/nj/woodbury/631-mantua-pike.html",
      "state": "NJ",
      "stateAbbr": "nj",
      "discovered": true,
      "detailsExtracted": true,
      "name": "Grocery Store Near Me - Grocery Delivery Or Pickup -  Woodbury, NJ",
      "streetAddress": "91E5F43F-7AEA-467D-882E-9BD6",
      "zipCode": "44827",
      "fullAddress": "91E5F43F-7AEA-467D-882E-9BD6, 8, DB 44827",
      "phone": "(856) 848-0224",
      "latitude": "6.35765195",
      "longitude": "15.5502006"
    },
    {
      "storeId": "nj-woodstown-857-route-45",
      "city": "Woodstown",
      "url": "https://local.acmemarkets.com/nj/woodstown/857-route-45.html",
      "state": "NJ",
      "stateAbbr": "nj",
      "discovered": true,
      "detailsExtracted": true,
      "name": "Grocery Store Near Me - Grocery Delivery Or Pickup -  Woodstown, NJ",
      "streetAddress": "91E5F43F-7AEA-467D-882E-9BD6",
      "zipCode": "44827",
      "fullAddress": "91E5F43F-7AEA-467D-882E-9BD6, 8, DB 44827",
      "phone": "(856) 769-8000",
      "latitude": "6.35765195",
      "longitude": "15.5502006"
    },
    {
      "storeId": "ny-brewster-1511-ny-route-22",
      "city": "Brewster",
      "url": "https://local.acmemarkets.com/ny/brewster/1511-ny-route-22.html",
      "state": "NY",
      "stateAbbr": "ny",
      "discovered": true,
      "detailsExtracted": true,
      "name": "Grocery Store Near Me - Grocery Delivery Or Pickup -  Brewster, NY",
      "streetAddress": "91E5F43F-7AEA-467D-882E-9BD6",
      "zipCode": "44827",
      "fullAddress": "91E5F43F-7AEA-467D-882E-9BD6, 8, DB 44827",
      "phone": "(845) 940-0575",
      "latitude": "6.35765195",
      "longitude": "15.5502006"
    },
    {
      "storeId": "ny-briarcliff-manor-1886-pleasantville-rd",
      "city": "Briarcliff",
      "url": "https://local.acmemarkets.com/ny/briarcliff-manor/1886-pleasantville-rd.html",
      "state": "NY",
      "stateAbbr": "ny",
      "discovered": true,
      "detailsExtracted": true,
      "name": "Grocery Store Near Me - Grocery Delivery Or Pickup -  Briarcliff Manor, NY",
      "streetAddress": "91E5F43F-7AEA-467D-882E-9BD6",
      "zipCode": "44827",
      "fullAddress": "91E5F43F-7AEA-467D-882E-9BD6, 8, DB 44827",
      "phone": "(914) 945-7225",
      "latitude": "6.35765195",
      "longitude": "15.5502006"
    },
    {
      "storeId": "ny-bronxville-12-cedar-st",
      "city": "Bronxville",
      "url": "https://local.acmemarkets.com/ny/bronxville/12-cedar-st.html",
      "state": "NY",
      "stateAbbr": "ny",
      "discovered": true,
      "detailsExtracted": true,
      "name": "Grocery Store Near Me - Grocery Delivery Or Pickup -  Bronxville, NY",
      "streetAddress": "91E5F43F-7AEA-467D-882E-9BD6",
      "zipCode": "44827",
      "fullAddress": "91E5F43F-7AEA-467D-882E-9BD6, 8, DB 44827",
      "phone": "(914) 793-1001",
      "latitude": "6.35765195",
      "longitude": "15.5502006"
    },
    {
      "storeId": "ny-goldens-bridge-100-route-22",
      "city": "Goldens",
      "url": "https://local.acmemarkets.com/ny/goldens-bridge/100-route-22.html",
      "state": "NY",
      "stateAbbr": "ny",
      "discovered": true,
      "detailsExtracted": true,
      "name": "Grocery Store Near Me - Grocery Delivery Or Pickup -  Goldens Bridge, NY",
      "streetAddress": "91E5F43F-7AEA-467D-882E-9BD6",
      "zipCode": "44827",
      "fullAddress": "91E5F43F-7AEA-467D-882E-9BD6, 8, DB 44827",
      "phone": "(914) 232-7610",
      "latitude": "6.35765195",
      "longitude": "15.5502006"
    },
    {
      "storeId": "ny-hopewell-junction-829-route-82",
      "city": "Hopewell",
      "url": "https://local.acmemarkets.com/ny/hopewell-junction/829-route-82.html",
      "state": "NY",
      "stateAbbr": "ny",
      "discovered": true,
      "detailsExtracted": true,
      "name": "Grocery Store Near Me - Grocery Delivery Or Pickup -  Hopewell Junction, NY",
      "streetAddress": "91E5F43F-7AEA-467D-882E-9BD6",
      "zipCode": "44827",
      "fullAddress": "91E5F43F-7AEA-467D-882E-9BD6, 8, DB 44827",
      "phone": "(845) 227-0581",
      "latitude": "6.35765195",
      "longitude": "15.5502006"
    },
    {
      "storeId": "ny-mahopac-272-us-route-6",
      "city": "Mahopac",
      "url": "https://local.acmemarkets.com/ny/mahopac/272-us-route-6.html",
      "state": "NY",
      "stateAbbr": "ny",
      "discovered": true,
      "detailsExtracted": true,
      "name": "Grocery Store Near Me - Grocery Delivery Or Pickup -  Mahopac, NY",
      "streetAddress": "91E5F43F-7AEA-467D-882E-9BD6",
      "zipCode": "44827",
      "fullAddress": "91E5F43F-7AEA-467D-882E-9BD6, 8, DB 44827",
      "phone": "(845) 621-5110",
      "latitude": "6.35765195",
      "longitude": "15.5502006"
    },
    {
      "storeId": "ny-mohegan-lake-3071-e-main-st",
      "city": "Mohegan",
      "url": "https://local.acmemarkets.com/ny/mohegan-lake/3071-e-main-st.html",
      "state": "NY",
      "stateAbbr": "ny",
      "discovered": true,
      "detailsExtracted": true,
      "name": "Grocery Store Near Me - Grocery Delivery Or Pickup -  Mohegan Lake, NY",
      "streetAddress": "91E5F43F-7AEA-467D-882E-9BD6",
      "zipCode": "44827",
      "fullAddress": "91E5F43F-7AEA-467D-882E-9BD6, 8, DB 44827",
      "phone": "(914) 526-6688",
      "latitude": "6.35765195",
      "longitude": "15.5502006"
    },
    {
      "storeId": "ny-new-rochelle-23-quaker-ridge-rd",
      "city": "New",
      "url": "https://local.acmemarkets.com/ny/new-rochelle/23-quaker-ridge-rd.html",
      "state": "NY",
      "stateAbbr": "ny",
      "discovered": true,
      "detailsExtracted": true,
      "name": "Grocery Store Near Me - Grocery Delivery Or Pickup - in New Rochelle, New Rochelle, NY",
      "streetAddress": "91E5F43F-7AEA-467D-882E-9BD6",
      "zipCode": "44827",
      "fullAddress": "91E5F43F-7AEA-467D-882E-9BD6, 8, DB 44827",
      "phone": "(914) 636-2133",
      "latitude": "6.35765195",
      "longitude": "15.5502006"
    },
    {
      "storeId": "ny-patterson-3101-route-22",
      "city": "Patterson",
      "url": "https://local.acmemarkets.com/ny/patterson/3101-route-22.html",
      "state": "NY",
      "stateAbbr": "ny",
      "discovered": true,
      "detailsExtracted": true,
      "name": "Grocery Store Near Me - Grocery Delivery Or Pickup -  Patterson, NY",
      "streetAddress": "91E5F43F-7AEA-467D-882E-9BD6",
      "zipCode": "44827",
      "fullAddress": "91E5F43F-7AEA-467D-882E-9BD6, 8, DB 44827",
      "phone": "(845) 878-2044",
      "latitude": "6.35765195",
      "longitude": "15.5502006"
    },
    {
      "storeId": "ny-pleasant-valley-13-north-ave",
      "city": "Pleasant",
      "url": "https://local.acmemarkets.com/ny/pleasant-valley/13-north-ave.html",
      "state": "NY",
      "stateAbbr": "ny",
      "discovered": true,
      "detailsExtracted": true,
      "name": "Grocery Store Near Me - Grocery Delivery Or Pickup -  Pleasant Valley, NY",
      "streetAddress": "91E5F43F-7AEA-467D-882E-9BD6",
      "zipCode": "44827",
      "fullAddress": "91E5F43F-7AEA-467D-882E-9BD6, 8, DB 44827",
      "phone": "(845) 635-4420",
      "latitude": "6.35765195",
      "longitude": "15.5502006"
    },
    {
      "storeId": "ny-rye-brook-261-s-ridge-st",
      "city": "Rye",
      "url": "https://local.acmemarkets.com/ny/rye-brook/261-s-ridge-st.html",
      "state": "NY",
      "stateAbbr": "ny",
      "discovered": true,
      "detailsExtracted": true,
      "name": "Grocery Store Near Me - Grocery Delivery Or Pickup -  Rye Brook, NY",
      "streetAddress": "91E5F43F-7AEA-467D-882E-9BD6",
      "zipCode": "44827",
      "fullAddress": "91E5F43F-7AEA-467D-882E-9BD6, 8, DB 44827",
      "phone": "(914) 937-2233",
      "latitude": "6.35765195",
      "longitude": "15.5502006"
    },
    {
      "storeId": "ny-shrub-oak-1366-e-main-st",
      "city": "Shrub",
      "url": "https://local.acmemarkets.com/ny/shrub-oak/1366-e-main-st.html",
      "state": "NY",
      "stateAbbr": "ny",
      "discovered": true,
      "detailsExtracted": true,
      "name": "Grocery Store Near Me - Grocery Delivery Or Pickup -  Shrub Oak, NY",
      "streetAddress": "91E5F43F-7AEA-467D-882E-9BD6",
      "zipCode": "44827",
      "fullAddress": "91E5F43F-7AEA-467D-882E-9BD6, 8, DB 44827",
      "phone": "(914) 528-3620",
      "latitude": "6.35765195",
      "longitude": "15.5502006"
    },
    {
      "storeId": "ny-thornwood-610-columbus-ave",
      "city": "Thornwood",
      "url": "https://local.acmemarkets.com/ny/thornwood/610-columbus-ave.html",
      "state": "NY",
      "stateAbbr": "ny",
      "discovered": true,
      "detailsExtracted": true,
      "name": "Grocery Store Near Me - Grocery Delivery Or Pickup -  Thornwood, NY",
      "streetAddress": "91E5F43F-7AEA-467D-882E-9BD6",
      "zipCode": "44827",
      "fullAddress": "91E5F43F-7AEA-467D-882E-9BD6, 8, DB 44827",
      "phone": "(914) 747-0455",
      "latitude": "6.35765195",
      "longitude": "15.5502006"
    },
    {
      "storeId": "ny-white-plains-103-knollwood-rd",
      "city": "White",
      "url": "https://local.acmemarkets.com/ny/white-plains/103-knollwood-rd.html",
      "state": "NY",
      "stateAbbr": "ny",
      "discovered": true,
      "detailsExtracted": true,
      "name": "Grocery Store Near Me - Grocery Delivery Or Pickup -  White Plains, NY",
      "streetAddress": "91E5F43F-7AEA-467D-882E-9BD6",
      "zipCode": "44827",
      "fullAddress": "91E5F43F-7AEA-467D-882E-9BD6, 8, DB 44827",
      "phone": "(914) 682-1711",
      "latitude": "6.35765195",
      "longitude": "15.5502006"
    },
    {
      "storeId": "ny-yonkers-660-mclean-ave",
      "city": "Yonkers",
      "url": "https://local.acmemarkets.com/ny/yonkers/660-mclean-ave.html",
      "state": "NY",
      "stateAbbr": "ny",
      "discovered": true,
      "detailsExtracted": true,
      "name": "Grocery Store Near Me - Grocery Delivery Or Pickup - in Yonkers, Yonkers, NY",
      "streetAddress": "91E5F43F-7AEA-467D-882E-9BD6",
      "zipCode": "44827",
      "fullAddress": "91E5F43F-7AEA-467D-882E-9BD6, 8, DB 44827",
      "phone": "(914) 376-8755",
      "latitude": "6.35765195",
      "longitude": "15.5502006"
    },
    {
      "storeId": "ny-yorktown-heights-100-triangle-center",
      "city": "Yorktown",
      "url": "https://local.acmemarkets.com/ny/yorktown-heights/100-triangle-center.html",
      "state": "NY",
      "stateAbbr": "ny",
      "discovered": true,
      "detailsExtracted": true,
      "name": "Grocery Store Near Me - Grocery Delivery Or Pickup -  Yorktown Heights, NY",
      "streetAddress": "91E5F43F-7AEA-467D-882E-9BD6",
      "zipCode": "44827",
      "fullAddress": "91E5F43F-7AEA-467D-882E-9BD6, 8, DB 44827",
      "phone": "(914) 455-3810",
      "latitude": "6.35765195",
      "longitude": "15.5502006"
    },
    {
      "storeId": "pa-avondale-851-gap-newport-pike",
      "city": "Avondale",
      "url": "https://local.acmemarkets.com/pa/avondale/851-gap-newport-pike.html",
      "state": "PA",
      "stateAbbr": "pa",
      "discovered": true,
      "detailsExtracted": true,
      "name": "Grocery Store Near Me - Grocery Delivery Or Pickup -  Avondale, PA",
      "streetAddress": "91E5F43F-7AEA-467D-882E-9BD6",
      "zipCode": "44827",
      "fullAddress": "91E5F43F-7AEA-467D-882E-9BD6, 8, DB 44827",
      "phone": "(610) 268-3898",
      "hours": "7:00AM-2:00AM",
      "latitude": "6.35765195",
      "longitude": "15.5502006"
    },
    {
      "storeId": "pa-bala-cynwyd-121-e-city-ave",
      "city": "Bala",
      "url": "https://local.acmemarkets.com/pa/bala-cynwyd/121-e-city-ave.html",
      "state": "PA",
      "stateAbbr": "pa",
      "discovered": true,
      "detailsExtracted": true,
      "name": "Grocery Store Near Me - Grocery Delivery Or Pickup -  Bala Cynwyd, PA",
      "streetAddress": "91E5F43F-7AEA-467D-882E-9BD6",
      "zipCode": "44827",
      "fullAddress": "91E5F43F-7AEA-467D-882E-9BD6, 8, DB 44827",
      "phone": "(610) 667-7021",
      "hours": "7:00AM-2:00AM",
      "latitude": "6.35765195",
      "longitude": "15.5502006"
    },
    {
      "storeId": "pa-bensalem-1336-bristol-pike-suite-100",
      "city": "Bensalem",
      "addressSlug": "1336-bristol-pike-suite-100",
      "url": "https://local.acmemarkets.com/pa/bensalem/1336-bristol-pike-suite-100.html",
      "state": "Pennsylvania",
      "stateAbbr": "pa",
      "discovered": true,
      "detailsExtracted": true,
      "name": "Grocery Store Near Me - Grocery Delivery Or Pickup -  Bensalem, PA",
      "phone": "(215) 638-8190",
      "hours": "7:00AM-2:00AM"
    },
    {
      "storeId": "pa-bensalem-2301-bristol-rd",
      "city": "Bensalem",
      "addressSlug": "2301-bristol-rd",
      "url": "https://local.acmemarkets.com/pa/bensalem/2301-bristol-rd.html",
      "state": "Pennsylvania",
      "stateAbbr": "pa",
      "discovered": true,
      "detailsExtracted": true,
      "name": "Grocery Store Near Me - Grocery Delivery Or Pickup -  Bensalem, PA",
      "phone": "(215) 757-9995",
      "hours": "7:00AM-2:00AM"
    },
    {
      "storeId": "pa-boothwyn-643-conchester-pike",
      "city": "Boothwyn",
      "url": "https://local.acmemarkets.com/pa/boothwyn/643-conchester-pike.html",
      "state": "PA",
      "stateAbbr": "pa",
      "discovered": true,
      "detailsExtracted": true,
      "name": "Grocery Store Near Me - Grocery Delivery Or Pickup -  Boothwyn, PA",
      "streetAddress": "91E5F43F-7AEA-467D-882E-9BD6",
      "zipCode": "44827",
      "fullAddress": "91E5F43F-7AEA-467D-882E-9BD6, 8, DB 44827",
      "phone": "(610) 859-0001",
      "hours": "7:00AM-2:00AM",
      "latitude": "6.35765195",
      "longitude": "15.5502006"
    },
    {
      "storeId": "pa-broomall-1991-n-sproul-rd",
      "city": "Broomall",
      "url": "https://local.acmemarkets.com/pa/broomall/1991-n-sproul-rd.html",
      "state": "PA",
      "stateAbbr": "pa",
      "discovered": true,
      "detailsExtracted": true,
      "name": "Grocery Store Near Me - Grocery Delivery Or Pickup -  Broomall, PA",
      "streetAddress": "91E5F43F-7AEA-467D-882E-9BD6",
      "zipCode": "44827",
      "fullAddress": "91E5F43F-7AEA-467D-882E-9BD6, 8, DB 44827",
      "phone": "(610) 325-2880",
      "hours": "7:00AM-2:00AM",
      "latitude": "6.35765195",
      "longitude": "15.5502006"
    },
    {
      "storeId": "pa-bryn-mawr-601-w-lancaster-ave",
      "city": "Bryn",
      "url": "https://local.acmemarkets.com/pa/bryn-mawr/601-w-lancaster-ave.html",
      "state": "PA",
      "stateAbbr": "pa",
      "discovered": true,
      "detailsExtracted": true,
      "name": "Grocery Store Near Me - Grocery Delivery Or Pickup -  Bryn Mawr, PA",
      "streetAddress": "91E5F43F-7AEA-467D-882E-9BD6",
      "zipCode": "44827",
      "fullAddress": "91E5F43F-7AEA-467D-882E-9BD6, 8, DB 44827",
      "phone": "(610) 525-1950",
      "hours": "7:00AM-2:00AM",
      "latitude": "6.35765195",
      "longitude": "15.5502006"
    },
    {
      "storeId": "pa-chester-springs-400-simpson-dr",
      "city": "Chester",
      "url": "https://local.acmemarkets.com/pa/chester-springs/400-simpson-dr.html",
      "state": "PA",
      "stateAbbr": "pa",
      "discovered": true,
      "detailsExtracted": true,
      "name": "Grocery Store Near Me - Grocery Delivery Or Pickup -  Chester Springs, PA",
      "streetAddress": "91E5F43F-7AEA-467D-882E-9BD6",
      "zipCode": "44827",
      "fullAddress": "91E5F43F-7AEA-467D-882E-9BD6, 8, DB 44827",
      "phone": "(610) 458-7004",
      "hours": "7:00AM-2:00AM",
      "latitude": "6.35765195",
      "longitude": "15.5502006"
    },
    {
      "storeId": "pa-clifton-heights-5300-baltimore-pike",
      "city": "Clifton",
      "url": "https://local.acmemarkets.com/pa/clifton-heights/5300-baltimore-pike.html",
      "state": "PA",
      "stateAbbr": "pa",
      "discovered": true,
      "detailsExtracted": true,
      "name": "Grocery Store Near Me - Grocery Delivery Or Pickup -  Clifton Heights, PA",
      "streetAddress": "91E5F43F-7AEA-467D-882E-9BD6",
      "zipCode": "44827",
      "fullAddress": "91E5F43F-7AEA-467D-882E-9BD6, 8, DB 44827",
      "phone": "(610) 284-6800",
      "hours": "7:00AM-2:00AM",
      "latitude": "6.35765195",
      "longitude": "15.5502006"
    },
    {
      "storeId": "pa-downingtown-3951-lincoln-hwy",
      "city": "Downingtown",
      "url": "https://local.acmemarkets.com/pa/downingtown/3951-lincoln-hwy.html",
      "state": "PA",
      "stateAbbr": "pa",
      "discovered": true,
      "detailsExtracted": true,
      "name": "Grocery Store Near Me - Grocery Delivery Or Pickup -  Downingtown, PA",
      "streetAddress": "91E5F43F-7AEA-467D-882E-9BD6",
      "zipCode": "44827",
      "fullAddress": "91E5F43F-7AEA-467D-882E-9BD6, 8, DB 44827",
      "phone": "(610) 873-8315",
      "hours": "7:00AM-2:00AM",
      "latitude": "6.35765195",
      "longitude": "15.5502006"
    },
    {
      "storeId": "pa-doylestown-480-n-main-st",
      "city": "Doylestown",
      "url": "https://local.acmemarkets.com/pa/doylestown/480-n-main-st.html",
      "state": "PA",
      "stateAbbr": "pa",
      "discovered": true,
      "detailsExtracted": true,
      "name": "Grocery Store Near Me - Grocery Delivery Or Pickup -  Doylestown, PA",
      "streetAddress": "91E5F43F-7AEA-467D-882E-9BD6",
      "zipCode": "44827",
      "fullAddress": "91E5F43F-7AEA-467D-882E-9BD6, 8, DB 44827",
      "phone": "(215) 340-1341",
      "hours": "7:00AM-2:00AM",
      "latitude": "6.35765195",
      "longitude": "15.5502006"
    },
    {
      "storeId": "pa-dresher-1825-limekiln-pike",
      "city": "Dresher",
      "url": "https://local.acmemarkets.com/pa/dresher/1825-limekiln-pike.html",
      "state": "PA",
      "stateAbbr": "pa",
      "discovered": true,
      "detailsExtracted": true,
      "name": "Grocery Store Near Me - Grocery Delivery Or Pickup -  Dresher, PA",
      "streetAddress": "91E5F43F-7AEA-467D-882E-9BD6",
      "zipCode": "44827",
      "fullAddress": "91E5F43F-7AEA-467D-882E-9BD6, 8, DB 44827",
      "phone": "(215) 643-3992",
      "hours": "7:00AM-2:00AM",
      "latitude": "6.35765195",
      "longitude": "15.5502006"
    },
    {
      "storeId": "pa-east-norriton-25-e-germantown-pike",
      "city": "Plymouth Meeting",
      "url": "https://local.acmemarkets.com/pa/east-norriton/25-e-germantown-pike.html",
      "state": "PA",
      "stateAbbr": "pa",
      "discovered": true,
      "detailsExtracted": true,
      "name": "Grocery Store Near Me - Grocery Delivery Or Pickup -  East Norriton, PA",
      "streetAddress": "640 Fountain Road",
      "zipCode": "19462",
      "fullAddress": "640 Fountain Road, Plymouth Meeting, PA 19462",
      "phone": "(610) 313-5500",
      "latitude": "6.35765195",
      "longitude": "15.5502006"
    },
    {
      "storeId": "pa-feasterville-trevose-105-e-street-rd",
      "city": "Feasterville",
      "url": "https://local.acmemarkets.com/pa/feasterville-trevose/105-e-street-rd.html",
      "state": "PA",
      "stateAbbr": "pa",
      "discovered": true,
      "detailsExtracted": true,
      "name": "Grocery Store Near Me - Grocery Delivery Or Pickup -  Feasterville Trevose, PA",
      "streetAddress": "91E5F43F-7AEA-467D-882E-9BD6",
      "zipCode": "44827",
      "fullAddress": "91E5F43F-7AEA-467D-882E-9BD6, 8, DB 44827",
      "phone": "(215) 942-4891",
      "hours": "7:00AM-2:00AM",
      "latitude": "6.35765195",
      "longitude": "15.5502006"
    },
    {
      "storeId": "pa-flourtown-1640-bethlehem-pike",
      "city": "Flourtown",
      "url": "https://local.acmemarkets.com/pa/flourtown/1640-bethlehem-pike.html",
      "state": "PA",
      "stateAbbr": "pa",
      "discovered": true,
      "detailsExtracted": true,
      "name": "Grocery Store Near Me - Grocery Delivery Or Pickup -  Flourtown, PA",
      "streetAddress": "91E5F43F-7AEA-467D-882E-9BD6",
      "zipCode": "44827",
      "fullAddress": "91E5F43F-7AEA-467D-882E-9BD6, 8, DB 44827",
      "phone": "(215) 836-2560",
      "hours": "7:00AM-2:00AM",
      "latitude": "6.35765195",
      "longitude": "15.5502006"
    },
    {
      "storeId": "pa-folsom-124-morton-ave",
      "city": "Folsom",
      "url": "https://local.acmemarkets.com/pa/folsom/124-morton-ave.html",
      "state": "PA",
      "stateAbbr": "pa",
      "discovered": true,
      "detailsExtracted": true,
      "name": "Grocery Store Near Me - Grocery Delivery Or Pickup -  Folsom, PA",
      "streetAddress": "91E5F43F-7AEA-467D-882E-9BD6",
      "zipCode": "44827",
      "fullAddress": "91E5F43F-7AEA-467D-882E-9BD6, 8, DB 44827",
      "phone": "(610) 237-3800",
      "hours": "7:00AM-2:00AM",
      "latitude": "6.35765195",
      "longitude": "15.5502006"
    },
    {
      "storeId": "pa-glen-mills-101-byers-dr",
      "city": "Glen",
      "url": "https://local.acmemarkets.com/pa/glen-mills/101-byers-dr.html",
      "state": "PA",
      "stateAbbr": "pa",
      "discovered": true,
      "detailsExtracted": true,
      "name": "Grocery Store Near Me - Grocery Delivery Or Pickup -  Glen Mills, PA",
      "streetAddress": "91E5F43F-7AEA-467D-882E-9BD6",
      "zipCode": "44827",
      "fullAddress": "91E5F43F-7AEA-467D-882E-9BD6, 8, DB 44827",
      "phone": "(610) 459-2759",
      "hours": "7:00AM-2:00AM",
      "latitude": "6.35765195",
      "longitude": "15.5502006"
    },
    {
      "storeId": "pa-havertown-1305-w-chester-pike",
      "city": "Havertown",
      "url": "https://local.acmemarkets.com/pa/havertown/1305-w-chester-pike.html",
      "state": "PA",
      "stateAbbr": "pa",
      "discovered": true,
      "detailsExtracted": true,
      "name": "Grocery Store Near Me - Grocery Delivery Or Pickup -  Havertown, PA",
      "streetAddress": "91E5F43F-7AEA-467D-882E-9BD6",
      "zipCode": "44827",
      "fullAddress": "91E5F43F-7AEA-467D-882E-9BD6, 8, DB 44827",
      "phone": "(610) 446-1191",
      "hours": "7:00AM-2:00AM",
      "latitude": "6.35765195",
      "longitude": "15.5502006"
    },
    {
      "storeId": "pa-holmes-503-s-macdade-blvd",
      "city": "Holmes",
      "url": "https://local.acmemarkets.com/pa/holmes/503-s-macdade-blvd.html",
      "state": "PA",
      "stateAbbr": "pa",
      "discovered": true,
      "detailsExtracted": true,
      "name": "Grocery Store Near Me - Grocery Delivery Or Pickup -  Holmes, PA",
      "streetAddress": "91E5F43F-7AEA-467D-882E-9BD6",
      "zipCode": "44827",
      "fullAddress": "91E5F43F-7AEA-467D-882E-9BD6, 8, DB 44827",
      "phone": "(610) 586-0557",
      "hours": "7:00AM-2:00AM",
      "latitude": "6.35765195",
      "longitude": "15.5502006"
    },
    {
      "storeId": "pa-horsham-200-blair-mill-rd",
      "city": "Horsham",
      "url": "https://local.acmemarkets.com/pa/horsham/200-blair-mill-rd.html",
      "state": "PA",
      "stateAbbr": "pa",
      "discovered": true,
      "detailsExtracted": true,
      "name": "Grocery Store Near Me - Grocery Delivery Or Pickup -  Horsham, PA",
      "streetAddress": "91E5F43F-7AEA-467D-882E-9BD6",
      "zipCode": "44827",
      "fullAddress": "91E5F43F-7AEA-467D-882E-9BD6, 8, DB 44827",
      "phone": "(215) 956-1600",
      "hours": "7:00AM-2:00AM",
      "latitude": "6.35765195",
      "longitude": "15.5502006"
    },
    {
      "storeId": "pa-jenkintown-323-old-york-rd",
      "city": "Jenkintown",
      "url": "https://local.acmemarkets.com/pa/jenkintown/323-old-york-rd.html",
      "state": "PA",
      "stateAbbr": "pa",
      "discovered": true,
      "detailsExtracted": true,
      "name": "Grocery Store Near Me - Grocery Delivery Or Pickup -  Jenkintown, PA",
      "streetAddress": "91E5F43F-7AEA-467D-882E-9BD6",
      "zipCode": "44827",
      "fullAddress": "91E5F43F-7AEA-467D-882E-9BD6, 8, DB 44827",
      "phone": "(215) 886-2911",
      "hours": "7:00AM-2:00AM",
      "latitude": "6.35765195",
      "longitude": "15.5502006"
    },
    {
      "storeId": "pa-levittown-6800-new-falls-rd",
      "city": "Levittown",
      "url": "https://local.acmemarkets.com/pa/levittown/6800-new-falls-rd.html",
      "state": "PA",
      "stateAbbr": "pa",
      "discovered": true,
      "detailsExtracted": true,
      "name": "Grocery Store Near Me - Grocery Delivery Or Pickup -  Levittown, PA",
      "streetAddress": "91E5F43F-7AEA-467D-882E-9BD6",
      "zipCode": "44827",
      "fullAddress": "91E5F43F-7AEA-467D-882E-9BD6, 8, DB 44827",
      "phone": "(215) 946-1840",
      "hours": "7:00AM-2:00AM",
      "latitude": "6.35765195",
      "longitude": "15.5502006"
    },
    {
      "storeId": "pa-media-1095-w-baltimore-pike",
      "city": "Media",
      "addressSlug": "1095-w-baltimore-pike",
      "url": "https://local.acmemarkets.com/pa/media/1095-w-baltimore-pike.html",
      "state": "Pennsylvania",
      "stateAbbr": "pa",
      "discovered": true,
      "detailsExtracted": true,
      "name": "Grocery Store Near Me - Grocery Delivery Or Pickup -  Media, PA",
      "phone": "(610) 891-0407",
      "hours": "7:00AM-2:00AM"
    },
    {
      "storeId": "pa-media-527-e-baltimore-pike",
      "city": "Media",
      "addressSlug": "527-e-baltimore-pike",
      "url": "https://local.acmemarkets.com/pa/media/527-e-baltimore-pike.html",
      "state": "Pennsylvania",
      "stateAbbr": "pa",
      "discovered": true,
      "detailsExtracted": true,
      "name": "Grocery Store Near Me - Grocery Delivery Or Pickup -  Media, PA",
      "phone": "(610) 565-5072",
      "hours": "7:00AM-2:00AM"
    },
    {
      "storeId": "pa-narberth-829-montgomery-ave",
      "city": "Narberth",
      "url": "https://local.acmemarkets.com/pa/narberth/829-montgomery-ave.html",
      "state": "PA",
      "stateAbbr": "pa",
      "discovered": true,
      "detailsExtracted": true,
      "name": "Grocery Store Near Me - Grocery Delivery Or Pickup -  Narberth, PA",
      "streetAddress": "91E5F43F-7AEA-467D-882E-9BD6",
      "zipCode": "44827",
      "fullAddress": "91E5F43F-7AEA-467D-882E-9BD6, 8, DB 44827",
      "phone": "(610) 668-1738",
      "hours": "7:00AM-2:00AM",
      "latitude": "6.35765195",
      "longitude": "15.5502006"
    },
    {
      "storeId": "pa-newtown-48-west-rd",
      "city": "Newtown",
      "url": "https://local.acmemarkets.com/pa/newtown/48-west-rd.html",
      "state": "PA",
      "stateAbbr": "pa",
      "discovered": true,
      "detailsExtracted": true,
      "name": "Grocery Store Near Me - Grocery Delivery Or Pickup -  Newtown, PA",
      "streetAddress": "91E5F43F-7AEA-467D-882E-9BD6",
      "zipCode": "44827",
      "fullAddress": "91E5F43F-7AEA-467D-882E-9BD6, 8, DB 44827",
      "phone": "(215) 504-9585",
      "hours": "7:00AM-2:00AM",
      "latitude": "6.35765195",
      "longitude": "15.5502006"
    },
    {
      "storeId": "pa-newtown-square-3590-w-chester-pike",
      "city": "Newtown",
      "url": "https://local.acmemarkets.com/pa/newtown-square/3590-w-chester-pike.html",
      "state": "PA",
      "stateAbbr": "pa",
      "discovered": true,
      "detailsExtracted": true,
      "name": "Grocery Store Near Me - Grocery Delivery Or Pickup -  Newtown Square, PA",
      "streetAddress": "91E5F43F-7AEA-467D-882E-9BD6",
      "zipCode": "44827",
      "fullAddress": "91E5F43F-7AEA-467D-882E-9BD6, 8, DB 44827",
      "phone": "(610) 353-8018",
      "hours": "7:00AM-2:00AM",
      "latitude": "6.35765195",
      "longitude": "15.5502006"
    },
    {
      "storeId": "pa-norristown-2761-w-ridge-pike",
      "city": "Norristown",
      "url": "https://local.acmemarkets.com/pa/norristown/2761-w-ridge-pike.html",
      "state": "PA",
      "stateAbbr": "pa",
      "discovered": true,
      "detailsExtracted": true,
      "name": "Grocery Store Near Me - Grocery Delivery Or Pickup -  Norristown, PA",
      "streetAddress": "91E5F43F-7AEA-467D-882E-9BD6",
      "zipCode": "44827",
      "fullAddress": "91E5F43F-7AEA-467D-882E-9BD6, 8, DB 44827",
      "phone": "(610) 630-0890",
      "hours": "7:00AM-2:00AM",
      "latitude": "6.35765195",
      "longitude": "15.5502006"
    },
    {
      "storeId": "pa-paoli-39-leopard-rd",
      "city": "Paoli",
      "url": "https://local.acmemarkets.com/pa/paoli/39-leopard-rd.html",
      "state": "PA",
      "stateAbbr": "pa",
      "discovered": true,
      "detailsExtracted": true,
      "name": "Grocery Store Near Me - Grocery Delivery Or Pickup -  Paoli, PA",
      "streetAddress": "91E5F43F-7AEA-467D-882E-9BD6",
      "zipCode": "44827",
      "fullAddress": "91E5F43F-7AEA-467D-882E-9BD6, 8, DB 44827",
      "phone": "(610) 240-0101",
      "hours": "7:00AM-2:00AM",
      "latitude": "6.35765195",
      "longitude": "15.5502006"
    },
    {
      "storeId": "pa-philadelphia-1001-south-st",
      "city": "Philadelphia",
      "addressSlug": "1001-south-st",
      "url": "https://local.acmemarkets.com/pa/philadelphia/1001-south-st.html",
      "state": "Pennsylvania",
      "stateAbbr": "pa",
      "discovered": true,
      "detailsExtracted": true,
      "name": "Grocery Store Near Me - Grocery Delivery Or Pickup - in South Philadelphia, Philadelphia, PA",
      "phone": "(215) 238-1108",
      "hours": "7:00AM-2:00AM"
    },
    {
      "storeId": "pa-philadelphia-1400-e-passyunk-ave",
      "city": "Philadelphia",
      "addressSlug": "1400-e-passyunk-ave",
      "url": "https://local.acmemarkets.com/pa/philadelphia/1400-e-passyunk-ave.html",
      "state": "Pennsylvania",
      "stateAbbr": "pa",
      "discovered": true,
      "detailsExtracted": true,
      "name": "Grocery Store Near Me - Grocery Delivery Or Pickup - in South Philadelphia, Philadelphia, PA",
      "phone": "(215) 467-2221",
      "hours": "7:00AM-2:00AM"
    },
    {
      "storeId": "pa-philadelphia-180-w-girard-ave",
      "city": "Philadelphia",
      "addressSlug": "180-w-girard-ave",
      "url": "https://local.acmemarkets.com/pa/philadelphia/180-w-girard-ave.html",
      "state": "Pennsylvania",
      "stateAbbr": "pa",
      "discovered": true,
      "detailsExtracted": true,
      "name": "Grocery Store Near Me - Grocery Delivery Or Pickup - in Northern Liberties, Philadelphia, PA",
      "phone": "(215) 574-2922",
      "hours": "7:00AM-2:00AM"
    },
    {
      "storeId": "pa-philadelphia-1901-johnston-st",
      "city": "Philadelphia",
      "addressSlug": "1901-johnston-st",
      "url": "https://local.acmemarkets.com/pa/philadelphia/1901-johnston-st.html",
      "state": "Pennsylvania",
      "stateAbbr": "pa",
      "discovered": true,
      "detailsExtracted": true,
      "name": "Grocery Store Near Me - Grocery Delivery Or Pickup - in South Philadelphia, Philadelphia, PA",
      "phone": "(215) 336-4441",
      "hours": "7:00AM-2:00AM"
    },
    {
      "storeId": "pa-philadelphia-2101-41-cottman-ave",
      "city": "Philadelphia",
      "addressSlug": "2101-41-cottman-ave",
      "url": "https://local.acmemarkets.com/pa/philadelphia/2101-41-cottman-ave.html",
      "state": "Pennsylvania",
      "stateAbbr": "pa",
      "discovered": true,
      "detailsExtracted": true,
      "name": "Grocery Store Near Me - Grocery Delivery Or Pickup - in Bustleton, Philadelphia, PA",
      "phone": "(215) 728-1010",
      "hours": "7:00AM-2:00AM"
    },
    {
      "storeId": "pa-philadelphia-29-snyder-ave",
      "city": "c",
      "addressSlug": "29-snyder-ave",
      "url": "https://local.acmemarkets.com/pa/philadelphia/29-snyder-ave.html",
      "state": "ef",
      "stateAbbr": "pa",
      "discovered": true,
      "detailsExtracted": true,
      "name": "Grocery Store Near Me - Grocery Delivery Or Pickup - in South Philadelphia, Philadelphia, PA",
      "streetAddress": "1\":\"29 Snyder Ave",
      "zipCode": "87653",
      "fullAddress": "1\":\"29 Snyder Ave, c, ef 87653",
      "phone": "(215) 271-5603",
      "hours": "7:00AM-2:00AM"
    },
    {
      "storeId": "pa-philadelphia-309-s-5th-st",
      "city": "Philadelphia",
      "addressSlug": "309-s-5th-st",
      "url": "https://local.acmemarkets.com/pa/philadelphia/309-s-5th-st.html",
      "state": "Pennsylvania",
      "stateAbbr": "pa",
      "discovered": true,
      "detailsExtracted": true,
      "name": "Grocery Store Near Me - Grocery Delivery Or Pickup - in Old City, Philadelphia, PA",
      "phone": "(215) 413-9725"
    },
    {
      "storeId": "pa-philadelphia-3200-09-red-lion-rd",
      "city": "Philadelphia",
      "addressSlug": "3200-09-red-lion-rd",
      "url": "https://local.acmemarkets.com/pa/philadelphia/3200-09-red-lion-rd.html",
      "state": "Pennsylvania",
      "stateAbbr": "pa",
      "discovered": true,
      "detailsExtracted": true,
      "name": "Grocery Store Near Me - Grocery Delivery Or Pickup - in Bustleton, Philadelphia, PA",
      "phone": "(215) 637-4620",
      "hours": "7:00AM-2:00AM"
    },
    {
      "storeId": "pa-philadelphia-4001-walnut-st",
      "city": "Philadelphia",
      "addressSlug": "4001-walnut-st",
      "url": "https://local.acmemarkets.com/pa/philadelphia/4001-walnut-st.html",
      "state": "Pennsylvania",
      "stateAbbr": "pa",
      "discovered": true,
      "detailsExtracted": true,
      "name": "Grocery Store Near Me - Grocery Delivery Or Pickup - in University City, Philadelphia, PA",
      "phone": "(445) 888-3634"
    },
    {
      "storeId": "pa-philadelphia-5927-59-ridge-ave",
      "city": "Philadelphia",
      "addressSlug": "5927-59-ridge-ave",
      "url": "https://local.acmemarkets.com/pa/philadelphia/5927-59-ridge-ave.html",
      "state": "Pennsylvania",
      "stateAbbr": "pa",
      "discovered": true,
      "detailsExtracted": true,
      "name": "Grocery Store Near Me - Grocery Delivery Or Pickup - in Roxborough, Philadelphia, PA",
      "phone": "(215) 487-7180",
      "hours": "8:00AM-9:00PM"
    },
    {
      "storeId": "pa-philadelphia-6601-roosevelt-blvd",
      "city": "Philadelphia",
      "addressSlug": "6601-roosevelt-blvd",
      "url": "https://local.acmemarkets.com/pa/philadelphia/6601-roosevelt-blvd.html",
      "state": "Pennsylvania",
      "stateAbbr": "pa",
      "discovered": true,
      "detailsExtracted": true,
      "name": "Grocery Store Near Me - Grocery Delivery Or Pickup - in Bustleton, Philadelphia, PA",
      "phone": "(215) 338-4700",
      "hours": "7:00AM-2:00AM"
    },
    {
      "storeId": "pa-philadelphia-6640-oxford-ave",
      "city": "Philadelphia",
      "addressSlug": "6640-oxford-ave",
      "url": "https://local.acmemarkets.com/pa/philadelphia/6640-oxford-ave.html",
      "state": "Pennsylvania",
      "stateAbbr": "pa",
      "discovered": true,
      "detailsExtracted": true,
      "name": "Grocery Store Near Me - Grocery Delivery Or Pickup - in West Philadelphia, Philadelphia, PA",
      "phone": "(215) 725-9310",
      "hours": "7:00AM-2:00AM"
    },
    {
      "storeId": "pa-philadelphia-7010-germantown-ave",
      "city": "Philadelphia",
      "addressSlug": "7010-germantown-ave",
      "url": "https://local.acmemarkets.com/pa/philadelphia/7010-germantown-ave.html",
      "state": "Pennsylvania",
      "stateAbbr": "pa",
      "discovered": true,
      "detailsExtracted": true,
      "name": "Grocery Store Near Me - Grocery Delivery Or Pickup - in Germantown, Philadelphia, PA",
      "phone": "(215) 247-1160",
      "hours": "7:00AM-2:00AM"
    },
    {
      "storeId": "pa-philadelphia-7700-crittenden-st",
      "city": "Philadelphia",
      "addressSlug": "7700-crittenden-st",
      "url": "https://local.acmemarkets.com/pa/philadelphia/7700-crittenden-st.html",
      "state": "Pennsylvania",
      "stateAbbr": "pa",
      "discovered": true,
      "detailsExtracted": true,
      "name": "Grocery Store Near Me - Grocery Delivery Or Pickup - in Chestnut Hill, Philadelphia, PA",
      "phone": "(215) 248-6490",
      "hours": "7:00AM-2:00AM"
    },
    {
      "storeId": "pa-philadelphia-8200-roosevelt-blvd",
      "city": "Philadelphia",
      "addressSlug": "8200-roosevelt-blvd",
      "url": "https://local.acmemarkets.com/pa/philadelphia/8200-roosevelt-blvd.html",
      "state": "Pennsylvania",
      "stateAbbr": "pa",
      "discovered": true,
      "detailsExtracted": true,
      "name": "Grocery Store Near Me - Grocery Delivery Or Pickup - in Bustleton, Philadelphia, PA",
      "phone": "(215) 338-8077",
      "hours": "7:00AM-2:00AM"
    },
    {
      "storeId": "pa-philadelphia-920-red-lion-rd",
      "city": "Philadelphia",
      "addressSlug": "920-red-lion-rd",
      "url": "https://local.acmemarkets.com/pa/philadelphia/920-red-lion-rd.html",
      "state": "Pennsylvania",
      "stateAbbr": "pa",
      "discovered": true,
      "detailsExtracted": true,
      "name": "Grocery Store Near Me - Grocery Delivery Or Pickup - in Bustleton, Philadelphia, PA",
      "phone": "(215) 676-5601",
      "hours": "7:00AM-2:00AM"
    },
    {
      "storeId": "pa-phoenixville-785-starr-st",
      "city": "Phoenixville",
      "url": "https://local.acmemarkets.com/pa/phoenixville/785-starr-st.html",
      "state": "PA",
      "stateAbbr": "pa",
      "discovered": true,
      "detailsExtracted": true,
      "name": "Grocery Store Near Me - Grocery Delivery Or Pickup -  Phoenixville, PA",
      "streetAddress": "91E5F43F-7AEA-467D-882E-9BD6",
      "zipCode": "44827",
      "fullAddress": "91E5F43F-7AEA-467D-882E-9BD6, 8, DB 44827",
      "phone": "(610) 933-6299",
      "hours": "7:00AM-2:00AM",
      "latitude": "6.35765195",
      "longitude": "15.5502006"
    },
    {
      "storeId": "pa-richboro-800-2nd-st-pike",
      "city": "Richboro",
      "url": "https://local.acmemarkets.com/pa/richboro/800-2nd-st-pike.html",
      "state": "PA",
      "stateAbbr": "pa",
      "discovered": true,
      "detailsExtracted": true,
      "name": "Grocery Store Near Me - Grocery Delivery Or Pickup -  Richboro, PA",
      "streetAddress": "91E5F43F-7AEA-467D-882E-9BD6",
      "zipCode": "44827",
      "fullAddress": "91E5F43F-7AEA-467D-882E-9BD6, 8, DB 44827",
      "phone": "(215) 354-4424",
      "hours": "7:00AM-2:00AM",
      "latitude": "6.35765195",
      "longitude": "15.5502006"
    },
    {
      "storeId": "pa-upper-darby-815-lansdowne-ave",
      "city": "Upper",
      "url": "https://local.acmemarkets.com/pa/upper-darby/815-lansdowne-ave.html",
      "state": "PA",
      "stateAbbr": "pa",
      "discovered": true,
      "detailsExtracted": true,
      "name": "Grocery Store Near Me - Grocery Delivery Or Pickup -  Upper Darby, PA",
      "streetAddress": "91E5F43F-7AEA-467D-882E-9BD6",
      "zipCode": "44827",
      "fullAddress": "91E5F43F-7AEA-467D-882E-9BD6, 8, DB 44827",
      "phone": "(610) 789-0898",
      "hours": "7:00AM-2:00AM",
      "latitude": "6.35765195",
      "longitude": "15.5502006"
    },
    {
      "storeId": "pa-wayne-700-w-lancaster-ave",
      "city": "Wayne",
      "url": "https://local.acmemarkets.com/pa/wayne/700-w-lancaster-ave.html",
      "state": "PA",
      "stateAbbr": "pa",
      "discovered": true,
      "detailsExtracted": true,
      "name": "Grocery Store Near Me - Grocery Delivery Or Pickup -  Wayne, PA",
      "streetAddress": "91E5F43F-7AEA-467D-882E-9BD6",
      "zipCode": "44827",
      "fullAddress": "91E5F43F-7AEA-467D-882E-9BD6, 8, DB 44827",
      "phone": "(610) 341-6073",
      "hours": "7:00AM-2:00AM",
      "latitude": "6.35765195",
      "longitude": "15.5502006"
    },
    {
      "storeId": "pa-west-chester-907-paoli-pike",
      "city": "West",
      "url": "https://local.acmemarkets.com/pa/west-chester/907-paoli-pike.html",
      "state": "PA",
      "stateAbbr": "pa",
      "discovered": true,
      "detailsExtracted": true,
      "name": "Grocery Store Near Me - Grocery Delivery Or Pickup -  West Chester, PA",
      "streetAddress": "91E5F43F-7AEA-467D-882E-9BD6",
      "zipCode": "44827",
      "fullAddress": "91E5F43F-7AEA-467D-882E-9BD6, 8, DB 44827",
      "phone": "(610) 431-4726",
      "hours": "7:00AM-2:00AM",
      "latitude": "6.35765195",
      "longitude": "15.5502006"
    }
  ],
  "invalidStores": [],
  "summary": {
    "byState": {
      "Connecticut": 0,
      "Delaware": 9,
      "Maryland": 0,
      "New Jersey": 12,
      "New York": 0,
      "Pennsylvania": 20
    }
  },
  "fixedDate": "2025-08-06T16:00:50.406Z",
  "fixedStores": 159,
  "errors": 0
}