{
  "results": [
    {
      "id": "US01001",
      "crmStoreID": "1001",
      "storeNumber": "0011a00000iYgEeAAK",
      "address": {
        "street": "1311 Mall Dr",
        "city": "North Chesterfield",
        "country": "US",
        "state": "VA",
        "longState": "Virginia",
        "zip": "23235"
      },
      "name": "N Chesterfield VA - Mall Dr",
      "hours": {
        "regularHours": [
          {
            "days": "Monday – Sunday",
            "hours": "9am – 8pm",
            "openingTime": "13:00:00Z",
            "closingTime": "00:00:00Z",
            "daysOfWeek": [
              1,
              2,
              3,
              4,
              5,
              6,
              7
            ]
          }
        ],
        "holidayHours": [],
        "specialHours": []
      },
      "phone": "844.747.5435",
      "attributes": [],
      "coordinates": {
        "lat": 37.512142,
        "lon": -77.606834
      },
      "temporarilyClosed": false,
      "reopeningDate": ""
    },
    {
      "id": "US01003",
      "crmStoreID": "1003",
      "storeNumber": "0011a00000k3Dq1AAE",
      "address": {
        "street": "11880 Jefferson Avenue",
        "city": "Newport News",
        "country": "US",
        "state": "VA",
        "longState": "Virginia",
        "zip": "23606"
      },
      "name": "Newport News VA - Jefferson Ave",
      "hours": {
        "regularHours": [
          {
            "days": "Monday – Sunday",
            "hours": "8am – 9pm",
            "openingTime": "12:00:00Z",
            "closingTime": "01:00:00Z",
            "daysOfWeek": [
              1,
              2,
              3,
              4,
              5,
              6,
              7
            ]
          }
        ],
        "holidayHours": [],
        "specialHours": []
      },
      "phone": "844.747.5435",
      "attributes": [],
      "coordinates": {
        "lat": 37.090706,
        "lon": -76.48392
      },
      "temporarilyClosed": false,
      "reopeningDate": ""
    },
    {
      "id": "US01006",
      "crmStoreID": "1006",
      "storeNumber": "0011a00000jFjRIAA0",
      "address": {
        "street": "1001 Community Dr",
        "city": "Suffolk",
        "country": "US",
        "state": "VA",
        "longState": "Virginia",
        "zip": "23435"
      },
      "name": "Suffolk VA - Harbour View Blvd",
      "hours": {
        "regularHours": [
          {
            "days": "Monday – Sunday",
            "hours": "9am – 8pm",
            "openingTime": "13:00:00Z",
            "closingTime": "00:00:00Z",
            "daysOfWeek": [
              1,
              2,
              3,
              4,
              5,
              6,
              7
            ]
          }
        ],
        "holidayHours": [],
        "specialHours": []
      },
      "phone": "844.747.5435",
      "attributes": [],
      "coordinates": {
        "lat": 36.875088,
        "lon": -76.43859
      },
      "temporarilyClosed": false,
      "reopeningDate": ""
    },
    {
      "id": "US01009",
      "crmStoreID": "1009",
      "storeNumber": "0011a00000hDFLSAA4",
      "address": {
        "street": "1800 E Fire Tower Rd",
        "city": "Greenville",
        "country": "US",
        "state": "NC",
        "longState": "North Carolina",
        "zip": "27858"
      },
      "name": "Greenville NC - E Fire Tower Rd.",
      "hours": {
        "regularHours": [
          {
            "days": "Monday – Sunday",
            "hours": "8am – 9pm",
            "openingTime": "12:00:00Z",
            "closingTime": "01:00:00Z",
            "daysOfWeek": [
              1,
              2,
              3,
              4,
              5,
              6,
              7
            ]
          }
        ],
        "holidayHours": [],
        "specialHours": []
      },
      "phone": "844.747.5435",
      "attributes": [],
      "coordinates": {
        "lat": 35.564632,
        "lon": -77.3587
      },
      "temporarilyClosed": false,
      "reopeningDate": ""
    },
    {
      "id": "US01010",
      "crmStoreID": "1010",
      "storeNumber": "0011a00000hDFPOAA4",
      "address": {
        "street": "3315 Sides Branch Rd",
        "city": "Winston Salem",
        "country": "US",
        "state": "NC",
        "longState": "North Carolina",
        "zip": "27127"
      },
      "name": "Winston Salem NC - Sides Branch Rd",
      "hours": {
        "regularHours": [
          {
            "days": "Monday – Sunday",
            "hours": "8am – 9pm",
            "openingTime": "12:00:00Z",
            "closingTime": "01:00:00Z",
            "daysOfWeek": [
              1,
              2,
              3,
              4,
              5,
              6,
              7
            ]
          }
        ],
        "holidayHours": [],
        "specialHours": []
      },
      "phone": "844.747.5435",
      "attributes": [],
      "coordinates": {
        "lat": 36.031605,
        "lon": -80.26134
      },
      "temporarilyClosed": false,
      "reopeningDate": ""
    },
    {
      "id": "US01015",
      "crmStoreID": "1015",
      "storeNumber": "0011a00000jFjRKAA0",
      "address": {
        "street": "9990 Charlotte Hwy",
        "city": "Indian Land",
        "country": "US",
        "state": "SC",
        "longState": "South Carolina",
        "zip": "29707"
      },
      "name": "Indian Land SC - Charlotte Hwy",
      "hours": {
        "regularHours": [
          {
            "days": "Monday – Sunday",
            "hours": "8am – 9pm",
            "openingTime": "12:00:00Z",
            "closingTime": "01:00:00Z",
            "daysOfWeek": [
              1,
              2,
              3,
              4,
              5,
              6,
              7
            ]
          }
        ],
        "holidayHours": [],
        "specialHours": []
      },
      "phone": "844.747.5435",
      "attributes": [],
      "coordinates": {
        "lat": 35.010246,
        "lon": -80.85271
      },
      "temporarilyClosed": false,
      "reopeningDate": ""
    },
    {
      "id": "US01017",
      "crmStoreID": "1017",
      "storeNumber": "0011a00000jGIXXAA4",
      "address": {
        "street": "1260 Herrons Ferry Rd",
        "city": "Rock Hill",
        "country": "US",
        "state": "SC",
        "longState": "South Carolina",
        "zip": "29730"
      },
      "name": "Rock Hill SC - Herrons Ferry Rd",
      "hours": {
        "regularHours": [
          {
            "days": "Monday – Sunday",
            "hours": "8am – 9pm",
            "openingTime": "12:00:00Z",
            "closingTime": "01:00:00Z",
            "daysOfWeek": [
              1,
              2,
              3,
              4,
              5,
              6,
              7
            ]
          }
        ],
        "holidayHours": [],
        "specialHours": []
      },
      "phone": "844.747.5435",
      "attributes": [],
      "coordinates": {
        "lat": 34.97869,
        "lon": -80.98097
      },
      "temporarilyClosed": false,
      "reopeningDate": ""
    },
    {
      "id": "US01018",
      "crmStoreID": "1018",
      "storeNumber": "0012L000010PNNHQA4",
      "address": {
        "street": "9318 Monroe Rd",
        "city": "Charlotte",
        "country": "US",
        "state": "NC",
        "longState": "North Carolina",
        "zip": "28270"
      },
      "name": "Charlotte NC - Monroe Rd",
      "hours": {
        "regularHours": [
          {
            "days": "Monday – Sunday",
            "hours": "8am – 9pm",
            "openingTime": "12:00:00Z",
            "closingTime": "01:00:00Z",
            "daysOfWeek": [
              1,
              2,
              3,
              4,
              5,
              6,
              7
            ]
          }
        ],
        "holidayHours": [],
        "specialHours": []
      },
      "phone": "844.747.5435",
      "attributes": [],
      "coordinates": {
        "lat": 35.144577,
        "lon": -80.74206
      },
      "temporarilyClosed": false,
      "reopeningDate": ""
    },
    {
      "id": "US01019",
      "crmStoreID": "1019",
      "storeNumber": "0011a00000iYgEcAAK",
      "address": {
        "street": "5110 S Laburnum Ave",
        "city": "Richmond",
        "country": "US",
        "state": "VA",
        "longState": "Virginia",
        "zip": "23231"
      },
      "name": "Richmond VA - S Laburnum Ave",
      "hours": {
        "regularHours": [
          {
            "days": "Monday – Sunday",
            "hours": "8am – 9pm",
            "openingTime": "12:00:00Z",
            "closingTime": "01:00:00Z",
            "daysOfWeek": [
              1,
              2,
              3,
              4,
              5,
              6,
              7
            ]
          }
        ],
        "holidayHours": [],
        "specialHours": []
      },
      "phone": "844.747.5435",
      "attributes": [],
      "coordinates": {
        "lat": 37.516,
        "lon": -77.34987
      },
      "temporarilyClosed": false,
      "reopeningDate": ""
    },
    {
      "id": "US01023",
      "crmStoreID": "1023",
      "storeNumber": "0011a00000nj85NAAQ",
      "address": {
        "street": "621 S Philadelphia Blvd",
        "city": "Aberdeen",
        "country": "US",
        "state": "MD",
        "longState": "Maryland",
        "zip": "21001"
      },
      "name": "Aberdeen MD - Philadelphia Blvd",
      "hours": {
        "regularHours": [
          {
            "days": "Monday – Sunday",
            "hours": "8am – 8pm",
            "openingTime": "12:00:00Z",
            "closingTime": "00:00:00Z",
            "daysOfWeek": [
              1,
              2,
              3,
              4,
              5,
              6,
              7
            ]
          }
        ],
        "holidayHours": [],
        "specialHours": []
      },
      "phone": "844.747.5435",
      "attributes": [],
      "coordinates": {
        "lat": 39.498722,
        "lon": -76.17168
      },
      "temporarilyClosed": false,
      "reopeningDate": ""
    },
    {
      "id": "US01028",
      "crmStoreID": "1028",
      "storeNumber": "0011a00000nj4k9AAA",
      "address": {
        "street": "13401 Annapolis Rd",
        "city": "Bowie",
        "country": "US",
        "state": "MD",
        "longState": "Maryland",
        "zip": "20720"
      },
      "name": "Bowie MD - Annapolis Rd",
      "hours": {
        "regularHours": [
          {
            "days": "Monday – Sunday",
            "hours": "8am – 10pm",
            "openingTime": "12:00:00Z",
            "closingTime": "02:00:00Z",
            "daysOfWeek": [
              1,
              2,
              3,
              4,
              5,
              6,
              7
            ]
          }
        ],
        "holidayHours": [],
        "specialHours": []
      },
      "phone": "844.747.5435",
      "attributes": [],
      "coordinates": {
        "lat": 38.97187,
        "lon": -76.77333
      },
      "temporarilyClosed": false,
      "reopeningDate": ""
    },
    {
      "id": "US01031",
      "crmStoreID": "1031",
      "storeNumber": "0011a00000k3Dq2AAE",
      "address": {
        "street": "2070 Tacketts Village Sq",
        "city": "Woodbridge",
        "country": "US",
        "state": "VA",
        "longState": "Virginia",
        "zip": "22192"
      },
      "name": "Woodbridge VA - Tacketts Village Sq",
      "hours": {
        "regularHours": [
          {
            "days": "Monday – Sunday",
            "hours": "8am – 9pm",
            "openingTime": "12:00:00Z",
            "closingTime": "01:00:00Z",
            "daysOfWeek": [
              1,
              2,
              3,
              4,
              5,
              6,
              7
            ]
          }
        ],
        "holidayHours": [],
        "specialHours": []
      },
      "phone": "844.747.5435",
      "attributes": [],
      "coordinates": {
        "lat": 38.67468,
        "lon": -77.27727
      },
      "temporarilyClosed": false,
      "reopeningDate": ""
    },
    {
      "id": "US01033",
      "crmStoreID": "1033",
      "storeNumber": "0011a00000iYgEYAA0",
      "address": {
        "street": "1120 S Main St",
        "city": "Wake Forest",
        "country": "US",
        "state": "NC",
        "longState": "North Carolina",
        "zip": "27587"
      },
      "name": "Wake Forest NC - S Main St",
      "hours": {
        "regularHours": [
          {
            "days": "Monday – Sunday",
            "hours": "8am – 9pm",
            "openingTime": "12:00:00Z",
            "closingTime": "01:00:00Z",
            "daysOfWeek": [
              1,
              2,
              3,
              4,
              5,
              6,
              7
            ]
          }
        ],
        "holidayHours": [],
        "specialHours": []
      },
      "phone": "844.747.5435",
      "attributes": [],
      "coordinates": {
        "lat": 35.96607,
        "lon": -78.51788
      },
      "temporarilyClosed": false,
      "reopeningDate": ""
    },
    {
      "id": "US01035",
      "crmStoreID": "1035",
      "storeNumber": "0012L000010PNNOQA4",
      "address": {
        "street": "2290 E Butler Street",
        "city": "Philadelphia",
        "country": "US",
        "state": "PA",
        "longState": "Pennsylvania",
        "zip": "19137"
      },
      "name": "Philadelphia PA - E Butler Street",
      "hours": {
        "regularHours": [
          {
            "days": "Monday – Sunday",
            "hours": "8am – 9pm",
            "openingTime": "12:00:00Z",
            "closingTime": "01:00:00Z",
            "daysOfWeek": [
              1,
              2,
              3,
              4,
              5,
              6,
              7
            ]
          }
        ],
        "holidayHours": [],
        "specialHours": []
      },
      "phone": "844.747.5435",
      "attributes": [],
      "coordinates": {
        "lat": 39.996674,
        "lon": -75.09291
      },
      "temporarilyClosed": false,
      "reopeningDate": ""
    },
    {
      "id": "US01038",
      "crmStoreID": "1038",
      "storeNumber": "0011a00000k3Dq3AAE",
      "address": {
        "street": "5455 Plank Rd",
        "city": "Fredericksburg",
        "country": "US",
        "state": "VA",
        "longState": "Virginia",
        "zip": "22407"
      },
      "name": "Fredericksburg VA - Plank and Gordon Rd",
      "hours": {
        "regularHours": [
          {
            "days": "Monday – Sunday",
            "hours": "8am – 9pm",
            "openingTime": "12:00:00Z",
            "closingTime": "01:00:00Z",
            "daysOfWeek": [
              1,
              2,
              3,
              4,
              5,
              6,
              7
            ]
          }
        ],
        "holidayHours": [],
        "specialHours": []
      },
      "phone": "844.747.5435",
      "attributes": [],
      "coordinates": {
        "lat": 38.29108,
        "lon": -77.56046
      },
      "temporarilyClosed": false,
      "reopeningDate": ""
    },
    {
      "id": "US01039",
      "crmStoreID": "1039",
      "storeNumber": "0011a00000k3Dq4AAE",
      "address": {
        "street": "1175 Warrenton Road",
        "city": "Fredericksburg",
        "country": "US",
        "state": "VA",
        "longState": "Virginia",
        "zip": "22406"
      },
      "name": "Fredericksburg VA - Warrenton Road",
      "hours": {
        "regularHours": [
          {
            "days": "Monday – Sunday",
            "hours": "9am – 9pm",
            "openingTime": "13:00:00Z",
            "closingTime": "01:00:00Z",
            "daysOfWeek": [
              1,
              2,
              3,
              4,
              5,
              6,
              7
            ]
          }
        ],
        "holidayHours": [],
        "specialHours": []
      },
      "phone": "844.747.5435",
      "attributes": [],
      "coordinates": {
        "lat": 38.36976,
        "lon": -77.52505
      },
      "temporarilyClosed": false,
      "reopeningDate": ""
    },
    {
      "id": "US01040",
      "crmStoreID": "1040",
      "storeNumber": "0011a00000jFjRRAA0",
      "address": {
        "street": "951 E. Hudson Blvd",
        "city": "Gastonia",
        "country": "US",
        "state": "NC",
        "longState": "North Carolina",
        "zip": "28054"
      },
      "name": "Gastonia NC - E Hudson Blvd",
      "hours": {
        "regularHours": [
          {
            "days": "Monday – Sunday",
            "hours": "9am – 8pm",
            "openingTime": "13:00:00Z",
            "closingTime": "00:00:00Z",
            "daysOfWeek": [
              1,
              2,
              3,
              4,
              5,
              6,
              7
            ]
          }
        ],
        "holidayHours": [],
        "specialHours": []
      },
      "phone": "844.747.5435",
      "attributes": [],
      "coordinates": {
        "lat": 35.232388,
        "lon": -81.171646
      },
      "temporarilyClosed": false,
      "reopeningDate": ""
    },
    {
      "id": "US01042",
      "crmStoreID": "1042",
      "storeNumber": "0011a00000hDFRyAAO",
      "address": {
        "street": "8180 Warren H. Abernathy Hwy",
        "city": "Spartanburg",
        "country": "US",
        "state": "SC",
        "longState": "South Carolina",
        "zip": "29301"
      },
      "name": "Spartanburg SC - Warren H. Abernathy Hwy",
      "hours": {
        "regularHours": [
          {
            "days": "Monday – Sunday",
            "hours": "8am – 9pm",
            "openingTime": "12:00:00Z",
            "closingTime": "01:00:00Z",
            "daysOfWeek": [
              1,
              2,
              3,
              4,
              5,
              6,
              7
            ]
          }
        ],
        "holidayHours": [],
        "specialHours": []
      },
      "phone": "844.747.5435",
      "attributes": [],
      "coordinates": {
        "lat": 34.9354,
        "lon": -82.00474
      },
      "temporarilyClosed": false,
      "reopeningDate": ""
    },
    {
      "id": "US01044",
      "crmStoreID": "1044",
      "storeNumber": "0012L000014Q0oUQAS",
      "address": {
        "street": "615 West Mallard Creek Church Road",
        "city": "Charlotte",
        "country": "US",
        "state": "NC",
        "longState": "North Carolina",
        "zip": "28262"
      },
      "name": "Charlotte NC - Charlotte - University",
      "hours": {
        "regularHours": [
          {
            "days": "Monday – Sunday",
            "hours": "8am – 9pm",
            "openingTime": "12:00:00Z",
            "closingTime": "01:00:00Z",
            "daysOfWeek": [
              1,
              2,
              3,
              4,
              5,
              6,
              7
            ]
          }
        ],
        "holidayHours": [],
        "specialHours": []
      },
      "phone": "844.747.5435",
      "attributes": [],
      "coordinates": {
        "lat": 35.3312,
        "lon": -80.740944
      },
      "temporarilyClosed": false,
      "reopeningDate": ""
    },
    {
      "id": "US01045",
      "crmStoreID": "1045",
      "storeNumber": "0011a00000k3Dq5AAE",
      "address": {
        "street": "4308 Wake Forest Road",
        "city": "Raleigh",
        "country": "US",
        "state": "NC",
        "longState": "North Carolina",
        "zip": "27609"
      },
      "name": "Raleigh NC - Wake Forest Rd",
      "hours": {
        "regularHours": [
          {
            "days": "Monday – Sunday",
            "hours": "8am – 9pm",
            "openingTime": "12:00:00Z",
            "closingTime": "01:00:00Z",
            "daysOfWeek": [
              1,
              2,
              3,
              4,
              5,
              6,
              7
            ]
          }
        ],
        "holidayHours": [],
        "specialHours": []
      },
      "phone": "844.747.5435",
      "attributes": [],
      "coordinates": {
        "lat": 35.839794,
        "lon": -78.611626
      },
      "temporarilyClosed": false,
      "reopeningDate": ""
    },
    {
      "id": "US01050",
      "crmStoreID": "1050",
      "storeNumber": "0011a00000hDFJ7AAO",
      "address": {
        "street": "2000 W Mercury Blvd",
        "city": "Hampton",
        "country": "US",
        "state": "VA",
        "longState": "Virginia",
        "zip": "23666"
      },
      "name": "Hampton VA - W Mercury Blvd",
      "hours": {
        "regularHours": [
          {
            "days": "Monday – Sunday",
            "hours": "8am – 9pm",
            "openingTime": "12:00:00Z",
            "closingTime": "01:00:00Z",
            "daysOfWeek": [
              1,
              2,
              3,
              4,
              5,
              6,
              7
            ]
          }
        ],
        "holidayHours": [],
        "specialHours": []
      },
      "phone": "844.747.5435",
      "attributes": [],
      "coordinates": {
        "lat": 37.04048,
        "lon": -76.39881
      },
      "temporarilyClosed": false,
      "reopeningDate": ""
    },
    {
      "id": "US01052",
      "crmStoreID": "1052",
      "storeNumber": "0011a00000jFjRGAA0",
      "address": {
        "street": "1096 Alexander Dr",
        "city": "Augusta",
        "country": "US",
        "state": "GA",
        "longState": "Georgia",
        "zip": "30909"
      },
      "name": "Augusta GA - Alexander Dr",
      "hours": {
        "regularHours": [
          {
            "days": "Monday – Sunday",
            "hours": "8am – 9pm",
            "openingTime": "12:00:00Z",
            "closingTime": "01:00:00Z",
            "daysOfWeek": [
              1,
              2,
              3,
              4,
              5,
              6,
              7
            ]
          }
        ],
        "holidayHours": [],
        "specialHours": []
      },
      "phone": "844.747.5435",
      "attributes": [],
      "coordinates": {
        "lat": 33.511276,
        "lon": -82.02745
      },
      "temporarilyClosed": false,
      "reopeningDate": ""
    },
    {
      "id": "US01053",
      "crmStoreID": "1053",
      "storeNumber": "0011a00000iYgEWAA0",
      "address": {
        "street": "15169 Brandy Rd",
        "city": "Culpeper",
        "country": "US",
        "state": "VA",
        "longState": "Virginia",
        "zip": "22701"
      },
      "name": "Culpeper VA - Brandy Rd",
      "hours": {
        "regularHours": [
          {
            "days": "Monday – Sunday",
            "hours": "8am – 9pm",
            "openingTime": "12:00:00Z",
            "closingTime": "01:00:00Z",
            "daysOfWeek": [
              1,
              2,
              3,
              4,
              5,
              6,
              7
            ]
          }
        ],
        "holidayHours": [],
        "specialHours": []
      },
      "phone": "844.747.5435",
      "attributes": [],
      "coordinates": {
        "lat": 38.4837,
        "lon": -77.97255
      },
      "temporarilyClosed": false,
      "reopeningDate": ""
    },
    {
      "id": "US01057",
      "crmStoreID": "1057",
      "storeNumber": "0011a00000hDFGxAAO",
      "address": {
        "street": "6196 Providence Rd",
        "city": "Virginia Beach",
        "country": "US",
        "state": "VA",
        "longState": "Virginia",
        "zip": "23464"
      },
      "name": "Virginia Beach VA - Providence Rd",
      "hours": {
        "regularHours": [
          {
            "days": "Monday – Sunday",
            "hours": "8am – 9pm",
            "openingTime": "12:00:00Z",
            "closingTime": "01:00:00Z",
            "daysOfWeek": [
              1,
              2,
              3,
              4,
              5,
              6,
              7
            ]
          }
        ],
        "holidayHours": [],
        "specialHours": []
      },
      "phone": "844.747.5435",
      "attributes": [],
      "coordinates": {
        "lat": 36.812107,
        "lon": -76.20762
      },
      "temporarilyClosed": false,
      "reopeningDate": ""
    },
    {
      "id": "US01058",
      "crmStoreID": "1058",
      "storeNumber": "0011a00000hDFj6AAG",
      "address": {
        "street": "3209 NC 87 South",
        "city": "Sanford",
        "country": "US",
        "state": "NC",
        "longState": "North Carolina",
        "zip": "27332"
      },
      "name": "Sanford NC - NC 87 South",
      "hours": {
        "regularHours": [
          {
            "days": "Monday – Sunday",
            "hours": "8am – 8pm",
            "openingTime": "12:00:00Z",
            "closingTime": "00:00:00Z",
            "daysOfWeek": [
              1,
              2,
              3,
              4,
              5,
              6,
              7
            ]
          }
        ],
        "holidayHours": [],
        "specialHours": []
      },
      "phone": "844.747.5435",
      "attributes": [],
      "coordinates": {
        "lat": 35.44746,
        "lon": -79.129234
      },
      "temporarilyClosed": false,
      "reopeningDate": ""
    },
    {
      "id": "US01059",
      "crmStoreID": "1059",
      "storeNumber": "0011a00000nj85KAAQ",
      "address": {
        "street": "16601 Dumfries Rd",
        "city": "Dumfries",
        "country": "US",
        "state": "VA",
        "longState": "Virginia",
        "zip": "22025"
      },
      "name": "Dumfries VA - Dumfries Rd",
      "hours": {
        "regularHours": [
          {
            "days": "Monday – Sunday",
            "hours": "8am – 9pm",
            "openingTime": "12:00:00Z",
            "closingTime": "01:00:00Z",
            "daysOfWeek": [
              1,
              2,
              3,
              4,
              5,
              6,
              7
            ]
          }
        ],
        "holidayHours": [],
        "specialHours": []
      },
      "phone": "844.747.5435",
      "attributes": [],
      "coordinates": {
        "lat": 38.595257,
        "lon": -77.334305
      },
      "temporarilyClosed": false,
      "reopeningDate": ""
    },
    {
      "id": "US01060",
      "crmStoreID": "1060",
      "storeNumber": "0011a00000jEBuvAAG",
      "address": {
        "street": "11701 Iron Bridge Rd",
        "city": "Chester",
        "country": "US",
        "state": "VA",
        "longState": "Virginia",
        "zip": "23831"
      },
      "name": "Chester VA - Iron Bridge Rd",
      "hours": {
        "regularHours": [
          {
            "days": "Monday – Sunday",
            "hours": "9am – 8pm",
            "openingTime": "13:00:00Z",
            "closingTime": "00:00:00Z",
            "daysOfWeek": [
              1,
              2,
              3,
              4,
              5,
              6,
              7
            ]
          }
        ],
        "holidayHours": [],
        "specialHours": []
      },
      "phone": "844.747.5435",
      "attributes": [],
      "coordinates": {
        "lat": 37.353527,
        "lon": -77.49257
      },
      "temporarilyClosed": false,
      "reopeningDate": ""
    },
    {
      "id": "US01063",
      "crmStoreID": "1063",
      "storeNumber": "0011a00000iYgEXAA0",
      "address": {
        "street": "4033 Portsmouth Blvd",
        "city": "Chesapeake",
        "country": "US",
        "state": "VA",
        "longState": "Virginia",
        "zip": "23321"
      },
      "name": "Chesapeake VA - Portsmouth Blvd",
      "hours": {
        "regularHours": [
          {
            "days": "Monday – Sunday",
            "hours": "9am – 8pm",
            "openingTime": "13:00:00Z",
            "closingTime": "00:00:00Z",
            "daysOfWeek": [
              1,
              2,
              3,
              4,
              5,
              6,
              7
            ]
          }
        ],
        "holidayHours": [],
        "specialHours": []
      },
      "phone": "844.747.5435",
      "attributes": [],
      "coordinates": {
        "lat": 36.82449,
        "lon": -76.40804
      },
      "temporarilyClosed": false,
      "reopeningDate": ""
    },
    {
      "id": "US01064",
      "crmStoreID": "1064",
      "storeNumber": "0011a00000hDFkwAAG",
      "address": {
        "street": "2037 Wade Hampton Blvd",
        "city": "Greenville",
        "country": "US",
        "state": "SC",
        "longState": "South Carolina",
        "zip": "29615"
      },
      "name": "Greenville SC - Wade Hampton Blvd Lidl",
      "hours": {
        "regularHours": [
          {
            "days": "Monday – Sunday",
            "hours": "8am – 9pm",
            "openingTime": "12:00:00Z",
            "closingTime": "01:00:00Z",
            "daysOfWeek": [
              1,
              2,
              3,
              4,
              5,
              6,
              7
            ]
          }
        ],
        "holidayHours": [],
        "specialHours": []
      },
      "phone": "844.747.5435",
      "attributes": [],
      "coordinates": {
        "lat": 34.884586,
        "lon": -82.355225
      },
      "temporarilyClosed": false,
      "reopeningDate": ""
    },
    {
      "id": "US01074",
      "crmStoreID": "1074",
      "storeNumber": "0011a00000hDtl7AAC",
      "address": {
        "street": "3520 Raleigh Road Parkway W",
        "city": "Wilson",
        "country": "US",
        "state": "NC",
        "longState": "North Carolina",
        "zip": "27896-8234"
      },
      "name": "Wilson NC - Raleigh Rd",
      "hours": {
        "regularHours": [
          {
            "days": "Monday – Sunday",
            "hours": "8am – 9pm",
            "openingTime": "12:00:00Z",
            "closingTime": "01:00:00Z",
            "daysOfWeek": [
              1,
              2,
              3,
              4,
              5,
              6,
              7
            ]
          }
        ],
        "holidayHours": [],
        "specialHours": []
      },
      "phone": "844.747.5435",
      "attributes": [],
      "coordinates": {
        "lat": 35.74481,
        "lon": -77.96349
      },
      "temporarilyClosed": false,
      "reopeningDate": ""
    },
    {
      "id": "US01080",
      "crmStoreID": "1080",
      "storeNumber": "0012L000010PNNLQA4",
      "address": {
        "street": "1451 Eastwood Rd",
        "city": "Wilmington",
        "country": "US",
        "state": "NC",
        "longState": "North Carolina",
        "zip": "28403"
      },
      "name": "Wilmington NC - Eastwood Rd",
      "hours": {
        "regularHours": [
          {
            "days": "Monday – Sunday",
            "hours": "8am – 8pm",
            "openingTime": "12:00:00Z",
            "closingTime": "00:00:00Z",
            "daysOfWeek": [
              1,
              2,
              3,
              4,
              5,
              6,
              7
            ]
          }
        ],
        "holidayHours": [],
        "specialHours": []
      },
      "phone": "844.747.5435",
      "attributes": [],
      "coordinates": {
        "lat": 34.23189,
        "lon": -77.83645
      },
      "temporarilyClosed": false,
      "reopeningDate": ""
    },
    {
      "id": "US01081",
      "crmStoreID": "1081",
      "storeNumber": "0012L000010PNN9QAO",
      "address": {
        "street": "980 S Richland Ave",
        "city": "York",
        "country": "US",
        "state": "PA",
        "longState": "Pennsylvania",
        "zip": "17403"
      },
      "name": "York PA - S Richland Ave",
      "hours": {
        "regularHours": [
          {
            "days": "Monday – Sunday",
            "hours": "8am – 9pm",
            "openingTime": "12:00:00Z",
            "closingTime": "01:00:00Z",
            "daysOfWeek": [
              1,
              2,
              3,
              4,
              5,
              6,
              7
            ]
          }
        ],
        "holidayHours": [],
        "specialHours": []
      },
      "phone": "844.747.5435",
      "attributes": [],
      "coordinates": {
        "lat": 39.94426,
        "lon": -76.74086
      },
      "temporarilyClosed": false,
      "reopeningDate": ""
    },
    {
      "id": "US01088",
      "crmStoreID": "1088",
      "storeNumber": "0011a00000iYgEbAAK",
      "address": {
        "street": "2200 E Main St",
        "city": "Spartanburg",
        "country": "US",
        "state": "SC",
        "longState": "South Carolina",
        "zip": "29307"
      },
      "name": "Spartanburg SC - E Main St",
      "hours": {
        "regularHours": [
          {
            "days": "Monday – Sunday",
            "hours": "8am – 9pm",
            "openingTime": "12:00:00Z",
            "closingTime": "01:00:00Z",
            "daysOfWeek": [
              1,
              2,
              3,
              4,
              5,
              6,
              7
            ]
          }
        ],
        "holidayHours": [],
        "specialHours": []
      },
      "phone": "844.747.5435",
      "attributes": [],
      "coordinates": {
        "lat": 34.973488,
        "lon": -81.88271
      },
      "temporarilyClosed": false,
      "reopeningDate": ""
    },
    {
      "id": "US01089",
      "crmStoreID": "1089",
      "storeNumber": "0011a00000jFjRFAA0",
      "address": {
        "street": "5038 US 70 Hwy",
        "city": "Morehead City",
        "country": "US",
        "state": "NC",
        "longState": "North Carolina",
        "zip": "28557"
      },
      "name": "Morehead City NC - US 70 Hwy",
      "hours": {
        "regularHours": [
          {
            "days": "Monday – Sunday",
            "hours": "8am – 8pm",
            "openingTime": "12:00:00Z",
            "closingTime": "00:00:00Z",
            "daysOfWeek": [
              1,
              2,
              3,
              4,
              5,
              6,
              7
            ]
          }
        ],
        "holidayHours": [],
        "specialHours": []
      },
      "phone": "844.747.5435",
      "attributes": [],
      "coordinates": {
        "lat": 34.73679,
        "lon": -76.796
      },
      "temporarilyClosed": false,
      "reopeningDate": ""
    },
    {
      "id": "US01092",
      "crmStoreID": "1092",
      "storeNumber": "0012L000010PNNBQA4",
      "address": {
        "street": "1401 Summit Parkway",
        "city": "Columbia",
        "country": "US",
        "state": "SC",
        "longState": "South Carolina",
        "zip": "29229"
      },
      "name": "Columbia SC - Summit Parkway",
      "hours": {
        "regularHours": [
          {
            "days": "Monday – Sunday",
            "hours": "8am – 9pm",
            "openingTime": "12:00:00Z",
            "closingTime": "01:00:00Z",
            "daysOfWeek": [
              1,
              2,
              3,
              4,
              5,
              6,
              7
            ]
          }
        ],
        "holidayHours": [],
        "specialHours": []
      },
      "phone": "844.747.5435",
      "attributes": [],
      "coordinates": {
        "lat": 34.15736,
        "lon": -80.910706
      },
      "temporarilyClosed": false,
      "reopeningDate": ""
    },
    {
      "id": "US01093",
      "crmStoreID": "1093",
      "storeNumber": "0012L000010PNNKQA4",
      "address": {
        "street": "3461 Promenande Pl",
        "city": "Waldorf",
        "country": "US",
        "state": "MD",
        "longState": "Maryland",
        "zip": "20603"
      },
      "name": "Waldorf MD - Promenande Pl",
      "hours": {
        "regularHours": [
          {
            "days": "Monday – Sunday",
            "hours": "8am – 9pm",
            "openingTime": "12:00:00Z",
            "closingTime": "01:00:00Z",
            "daysOfWeek": [
              1,
              2,
              3,
              4,
              5,
              6,
              7
            ]
          }
        ],
        "holidayHours": [],
        "specialHours": []
      },
      "phone": "844.747.5435",
      "attributes": [],
      "coordinates": {
        "lat": 38.617332,
        "lon": -76.93281
      },
      "temporarilyClosed": false,
      "reopeningDate": ""
    },
    {
      "id": "US01094",
      "crmStoreID": "1094",
      "storeNumber": "0011a00000k3Dq6AAE",
      "address": {
        "street": "1107 W Landis Ave",
        "city": "Vineland",
        "country": "US",
        "state": "NJ",
        "longState": "New Jersey",
        "zip": "08360"
      },
      "name": "Vineland NJ - West Landis Ave",
      "hours": {
        "regularHours": [
          {
            "days": "Monday – Sunday",
            "hours": "8am – 8pm",
            "openingTime": "12:00:00Z",
            "closingTime": "00:00:00Z",
            "daysOfWeek": [
              1,
              2,
              3,
              4,
              5,
              6,
              7
            ]
          }
        ],
        "holidayHours": [],
        "specialHours": []
      },
      "phone": "844.747.5435",
      "attributes": [],
      "coordinates": {
        "lat": 39.48676,
        "lon": -75.04782
      },
      "temporarilyClosed": false,
      "reopeningDate": ""
    },
    {
      "id": "US01096",
      "crmStoreID": "1096",
      "storeNumber": "0011a00000nj4kAAAQ",
      "address": {
        "street": "1120 S 25th St",
        "city": "Easton",
        "country": "US",
        "state": "PA",
        "longState": "Pennsylvania",
        "zip": "18042"
      },
      "name": "Easton PA - S 25th St",
      "hours": {
        "regularHours": [
          {
            "days": "Monday – Sunday",
            "hours": "8am – 8pm",
            "openingTime": "12:00:00Z",
            "closingTime": "00:00:00Z",
            "daysOfWeek": [
              1,
              2,
              3,
              4,
              5,
              6,
              7
            ]
          }
        ],
        "holidayHours": [],
        "specialHours": []
      },
      "phone": "844.747.5435",
      "attributes": [],
      "coordinates": {
        "lat": 40.675137,
        "lon": -75.24603
      },
      "temporarilyClosed": false,
      "reopeningDate": ""
    },
    {
      "id": "US01097",
      "crmStoreID": "1097",
      "storeNumber": "0011a00000nj4k8AAA",
      "address": {
        "street": "14600 E Independence Blvd",
        "city": "Indian Trail",
        "country": "US",
        "state": "NC",
        "longState": "North Carolina",
        "zip": "28079"
      },
      "name": "Indian Trail NC - E Independence Blvd",
      "hours": {
        "regularHours": [
          {
            "days": "Monday – Sunday",
            "hours": "8am – 9pm",
            "openingTime": "12:00:00Z",
            "closingTime": "01:00:00Z",
            "daysOfWeek": [
              1,
              2,
              3,
              4,
              5,
              6,
              7
            ]
          }
        ],
        "holidayHours": [],
        "specialHours": []
      },
      "phone": "844.747.5435",
      "attributes": [],
      "coordinates": {
        "lat": 35.076447,
        "lon": -80.652954
      },
      "temporarilyClosed": false,
      "reopeningDate": ""
    },
    {
      "id": "US01099",
      "crmStoreID": "1099",
      "storeNumber": "0011a00000jFjRMAA0",
      "address": {
        "street": "2510 North Rd",
        "city": "Orangeburg",
        "country": "US",
        "state": "SC",
        "longState": "South Carolina",
        "zip": "29118"
      },
      "name": "Orangeburg SC - North Rd",
      "hours": {
        "regularHours": [
          {
            "days": "Monday – Sunday",
            "hours": "8am – 8pm",
            "openingTime": "12:00:00Z",
            "closingTime": "00:00:00Z",
            "daysOfWeek": [
              1,
              2,
              3,
              4,
              5,
              6,
              7
            ]
          }
        ],
        "holidayHours": [],
        "specialHours": []
      },
      "phone": "844.747.5435",
      "attributes": [],
      "coordinates": {
        "lat": 33.524345,
        "lon": -80.884544
      },
      "temporarilyClosed": false,
      "reopeningDate": ""
    },
    {
      "id": "US01103",
      "crmStoreID": "1103",
      "storeNumber": "0011a00000iYgEZAA0",
      "address": {
        "street": "6440 N Military Hwy",
        "city": "Norfolk",
        "country": "US",
        "state": "VA",
        "longState": "Virginia",
        "zip": "23518"
      },
      "name": "Norfolk VA - N Military Hwy",
      "hours": {
        "regularHours": [
          {
            "days": "Monday – Sunday",
            "hours": "8am – 9pm",
            "openingTime": "12:00:00Z",
            "closingTime": "01:00:00Z",
            "daysOfWeek": [
              1,
              2,
              3,
              4,
              5,
              6,
              7
            ]
          }
        ],
        "holidayHours": [],
        "specialHours": []
      },
      "phone": "844.747.5435",
      "attributes": [],
      "coordinates": {
        "lat": 36.900394,
        "lon": -76.22627
      },
      "temporarilyClosed": false,
      "reopeningDate": ""
    },
    {
      "id": "US01105",
      "crmStoreID": "1105",
      "storeNumber": "0011a00000k3Dq7AAE",
      "address": {
        "street": "1209 Edison Rd.",
        "city": "Virginia Beach",
        "country": "US",
        "state": "VA",
        "longState": "Virginia",
        "zip": "23454"
      },
      "name": "Virginia Beach VA - Edison Rd",
      "hours": {
        "regularHours": [
          {
            "days": "Monday – Sunday",
            "hours": "9am – 8pm",
            "openingTime": "13:00:00Z",
            "closingTime": "00:00:00Z",
            "daysOfWeek": [
              1,
              2,
              3,
              4,
              5,
              6,
              7
            ]
          }
        ],
        "holidayHours": [],
        "specialHours": []
      },
      "phone": "844.747.5435",
      "attributes": [],
      "coordinates": {
        "lat": 36.77901,
        "lon": -76.00255
      },
      "temporarilyClosed": false,
      "reopeningDate": ""
    },
    {
      "id": "US01107",
      "crmStoreID": "1107",
      "storeNumber": "0011a00000k3Dq8AAE",
      "address": {
        "street": "2445 Fairlawn Dr",
        "city": "Winston Salem",
        "country": "US",
        "state": "NC",
        "longState": "North Carolina",
        "zip": "27106"
      },
      "name": "Winston Salem NC - Fairlawn Dr",
      "hours": {
        "regularHours": [
          {
            "days": "Monday – Sunday",
            "hours": "8am – 9pm",
            "openingTime": "12:00:00Z",
            "closingTime": "01:00:00Z",
            "daysOfWeek": [
              1,
              2,
              3,
              4,
              5,
              6,
              7
            ]
          }
        ],
        "holidayHours": [],
        "specialHours": []
      },
      "phone": "844.747.5435",
      "attributes": [],
      "coordinates": {
        "lat": 36.143185,
        "lon": -80.29195
      },
      "temporarilyClosed": false,
      "reopeningDate": ""
    },
    {
      "id": "US01108",
      "crmStoreID": "1108",
      "storeNumber": "0012L000010PNN8QAO",
      "address": {
        "street": "7200 Marlboro Pike",
        "city": "District Heights",
        "country": "US",
        "state": "MD",
        "longState": "Maryland",
        "zip": "20747"
      },
      "name": "District Heights MD - Marlboro Pike",
      "hours": {
        "regularHours": [
          {
            "days": "Monday – Sunday",
            "hours": "8am – 9pm",
            "openingTime": "12:00:00Z",
            "closingTime": "01:00:00Z",
            "daysOfWeek": [
              1,
              2,
              3,
              4,
              5,
              6,
              7
            ]
          }
        ],
        "holidayHours": [],
        "specialHours": []
      },
      "phone": "844.747.5435",
      "attributes": [],
      "coordinates": {
        "lat": 38.850773,
        "lon": -76.88266
      },
      "temporarilyClosed": false,
      "reopeningDate": ""
    },
    {
      "id": "US01110",
      "crmStoreID": "1110",
      "storeNumber": "0012L000010PNNXQA4",
      "address": {
        "street": "1105 N. Harrison Ave",
        "city": "Cary",
        "country": "US",
        "state": "NC",
        "longState": "North Carolina",
        "zip": "27513"
      },
      "name": "Cary NC - N. Harrison Ave",
      "hours": {
        "regularHours": [
          {
            "days": "Monday – Sunday",
            "hours": "8am – 9pm",
            "openingTime": "12:00:00Z",
            "closingTime": "01:00:00Z",
            "daysOfWeek": [
              1,
              2,
              3,
              4,
              5,
              6,
              7
            ]
          }
        ],
        "holidayHours": [],
        "specialHours": []
      },
      "phone": "844.747.5435",
      "attributes": [],
      "coordinates": {
        "lat": 35.805904,
        "lon": -78.783035
      },
      "temporarilyClosed": false,
      "reopeningDate": ""
    },
    {
      "id": "US01112",
      "crmStoreID": "1112",
      "storeNumber": "0012L000014Q0ocQAC",
      "address": {
        "street": "14445 Chantilly Crossing Lane",
        "city": "Chantilly",
        "country": "US",
        "state": "VA",
        "longState": "Virginia",
        "zip": "20151"
      },
      "name": "Chantilly VA - Chantilly Crossing",
      "hours": {
        "regularHours": [
          {
            "days": "Monday – Sunday",
            "hours": "9am – 9pm",
            "openingTime": "13:00:00Z",
            "closingTime": "01:00:00Z",
            "daysOfWeek": [
              1,
              2,
              3,
              4,
              5,
              6,
              7
            ]
          }
        ],
        "holidayHours": [],
        "specialHours": []
      },
      "phone": "844.747.5435",
      "attributes": [],
      "coordinates": {
        "lat": 38.90012,
        "lon": -77.4462
      },
      "temporarilyClosed": false,
      "reopeningDate": ""
    },
    {
      "id": "US01116",
      "crmStoreID": "1116",
      "storeNumber": "0011a00000k3Dq9AAE",
      "address": {
        "street": "435 Saint James Avenue",
        "city": "Goose Creek",
        "country": "US",
        "state": "SC",
        "longState": "South Carolina",
        "zip": "29445"
      },
      "name": "Goose Creek SC - Saint James Ave",
      "hours": {
        "regularHours": [
          {
            "days": "Monday – Sunday",
            "hours": "8am – 9pm",
            "openingTime": "12:00:00Z",
            "closingTime": "01:00:00Z",
            "daysOfWeek": [
              1,
              2,
              3,
              4,
              5,
              6,
              7
            ]
          }
        ],
        "holidayHours": [],
        "specialHours": []
      },
      "phone": "844.747.5435",
      "attributes": [],
      "coordinates": {
        "lat": 33.02594,
        "lon": -80.05649
      },
      "temporarilyClosed": false,
      "reopeningDate": ""
    },
    {
      "id": "US01117",
      "crmStoreID": "1117",
      "storeNumber": "0011a00000jFjRQAA0",
      "address": {
        "street": "9101 Hermitage Rd",
        "city": "Henrico",
        "country": "US",
        "state": "VA",
        "longState": "Virginia",
        "zip": "23228"
      },
      "name": "Henrico VA - Hermitage Rd",
      "hours": {
        "regularHours": [
          {
            "days": "Monday – Sunday",
            "hours": "8am – 9pm",
            "openingTime": "12:00:00Z",
            "closingTime": "01:00:00Z",
            "daysOfWeek": [
              1,
              2,
              3,
              4,
              5,
              6,
              7
            ]
          }
        ],
        "holidayHours": [],
        "specialHours": []
      },
      "phone": "844.747.5435",
      "attributes": [],
      "coordinates": {
        "lat": 37.62693,
        "lon": -77.504074
      },
      "temporarilyClosed": false,
      "reopeningDate": ""
    },
    {
      "id": "US01119",
      "crmStoreID": "1119",
      "storeNumber": "0011a00000nj8RvAAI",
      "address": {
        "street": "2375 Route 22",
        "city": "Union",
        "country": "US",
        "state": "NJ",
        "longState": "New Jersey",
        "zip": "07083"
      },
      "name": "Union NJ - Route 22",
      "hours": {
        "regularHours": [
          {
            "days": "Monday – Sunday",
            "hours": "8am – 9pm",
            "openingTime": "12:00:00Z",
            "closingTime": "01:00:00Z",
            "daysOfWeek": [
              1,
              2,
              3,
              4,
              5,
              6,
              7
            ]
          }
        ],
        "holidayHours": [],
        "specialHours": []
      },
      "phone": "844.747.5435",
      "attributes": [],
      "coordinates": {
        "lat": 40.69125,
        "lon": -74.29421
      },
      "temporarilyClosed": false,
      "reopeningDate": ""
    },
    {
      "id": "US01120",
      "crmStoreID": "1120",
      "storeNumber": "0011a00000nj4k5AAA",
      "address": {
        "street": "5215 Sunset Blvd",
        "city": "Lexington",
        "country": "US",
        "state": "SC",
        "longState": "South Carolina",
        "zip": "29072"
      },
      "name": "Lexington SC - Sunset Blvd",
      "hours": {
        "regularHours": [
          {
            "days": "Monday – Sunday",
            "hours": "8am – 9pm",
            "openingTime": "12:00:00Z",
            "closingTime": "01:00:00Z",
            "daysOfWeek": [
              1,
              2,
              3,
              4,
              5,
              6,
              7
            ]
          }
        ],
        "holidayHours": [],
        "specialHours": []
      },
      "phone": "844.747.5435",
      "attributes": [],
      "coordinates": {
        "lat": 34.005096,
        "lon": -81.20178
      },
      "temporarilyClosed": false,
      "reopeningDate": ""
    },
    {
      "id": "US01129",
      "crmStoreID": "1129",
      "storeNumber": "0011a00000jFjRHAA0",
      "address": {
        "street": "359 Auto Park Dr",
        "city": "Middletown",
        "country": "US",
        "state": "DE",
        "longState": "Delaware",
        "zip": "19709"
      },
      "name": "Middletown DE - Auto Park Dr",
      "hours": {
        "regularHours": [
          {
            "days": "Monday – Sunday",
            "hours": "8am – 9pm",
            "openingTime": "12:00:00Z",
            "closingTime": "01:00:00Z",
            "daysOfWeek": [
              1,
              2,
              3,
              4,
              5,
              6,
              7
            ]
          }
        ],
        "holidayHours": [],
        "specialHours": []
      },
      "phone": "844.747.5435",
      "attributes": [],
      "coordinates": {
        "lat": 39.44514,
        "lon": -75.730736
      },
      "temporarilyClosed": false,
      "reopeningDate": ""
    },
    {
      "id": "US01132",
      "crmStoreID": "1132",
      "storeNumber": "0011a00000jFjROAA0",
      "address": {
        "street": "11782 Sudley Manor Dr",
        "city": "Manassas",
        "country": "US",
        "state": "VA",
        "longState": "Virginia",
        "zip": "20109"
      },
      "name": "Manassas VA - Sudley Manor Dr",
      "hours": {
        "regularHours": [
          {
            "days": "Monday – Sunday",
            "hours": "8am – 9pm",
            "openingTime": "12:00:00Z",
            "closingTime": "01:00:00Z",
            "daysOfWeek": [
              1,
              2,
              3,
              4,
              5,
              6,
              7
            ]
          }
        ],
        "holidayHours": [],
        "specialHours": []
      },
      "phone": "844.747.5435",
      "attributes": [],
      "coordinates": {
        "lat": 38.78497,
        "lon": -77.52096
      },
      "temporarilyClosed": false,
      "reopeningDate": ""
    },
    {
      "id": "US01133",
      "crmStoreID": "1133",
      "storeNumber": "0012L000010PNNFQA4",
      "address": {
        "street": "7500 Mission Dr",
        "city": "Lanham",
        "country": "US",
        "state": "MD",
        "longState": "Maryland",
        "zip": "20706"
      },
      "name": "Lanham MD - Mission Dr",
      "hours": {
        "regularHours": [
          {
            "days": "Monday – Sunday",
            "hours": "8am – 9pm",
            "openingTime": "12:00:00Z",
            "closingTime": "01:00:00Z",
            "daysOfWeek": [
              1,
              2,
              3,
              4,
              5,
              6,
              7
            ]
          }
        ],
        "holidayHours": [],
        "specialHours": []
      },
      "phone": "844.747.5435",
      "attributes": [],
      "coordinates": {
        "lat": 38.991497,
        "lon": -76.823265
      },
      "temporarilyClosed": false,
      "reopeningDate": ""
    },
    {
      "id": "US01134",
      "crmStoreID": "1134",
      "storeNumber": "0011a00000nj8RyAAI",
      "address": {
        "street": "2973 Route 35",
        "city": "Hazlet",
        "country": "US",
        "state": "NJ",
        "longState": "New Jersey",
        "zip": "07730"
      },
      "name": "Hazlet NJ - NJSH 35",
      "hours": {
        "regularHours": [
          {
            "days": "Monday – Sunday",
            "hours": "8am – 9pm",
            "openingTime": "12:00:00Z",
            "closingTime": "01:00:00Z",
            "daysOfWeek": [
              1,
              2,
              3,
              4,
              5,
              6,
              7
            ]
          }
        ],
        "holidayHours": [],
        "specialHours": []
      },
      "phone": "844.747.5435",
      "attributes": [],
      "coordinates": {
        "lat": 40.41809,
        "lon": -74.17676
      },
      "temporarilyClosed": false,
      "reopeningDate": ""
    },
    {
      "id": "US01136",
      "crmStoreID": "1136",
      "storeNumber": "0012L000010PNNEQA4",
      "address": {
        "street": "5696 W Gate City Blvd",
        "city": "Greensboro",
        "country": "US",
        "state": "NC",
        "longState": "North Carolina",
        "zip": "27407"
      },
      "name": "Greensboro NC - W Gate City Blvd",
      "hours": {
        "regularHours": [
          {
            "days": "Monday – Sunday",
            "hours": "8am – 9pm",
            "openingTime": "12:00:00Z",
            "closingTime": "01:00:00Z",
            "daysOfWeek": [
              1,
              2,
              3,
              4,
              5,
              6,
              7
            ]
          }
        ],
        "holidayHours": [],
        "specialHours": []
      },
      "phone": "844.747.5435",
      "attributes": [],
      "coordinates": {
        "lat": 36.017838,
        "lon": -79.89463
      },
      "temporarilyClosed": false,
      "reopeningDate": ""
    },
    {
      "id": "US01138",
      "crmStoreID": "1138",
      "storeNumber": "0011a00000nj4k3AAA",
      "address": {
        "street": "1831  E Ridge Pike",
        "city": "Royersford",
        "country": "US",
        "state": "PA",
        "longState": "Pennsylvania",
        "zip": "19468"
      },
      "name": "Royersford PA - Ridge Pike",
      "hours": {
        "regularHours": [
          {
            "days": "Monday – Sunday",
            "hours": "8am – 9pm",
            "openingTime": "12:00:00Z",
            "closingTime": "01:00:00Z",
            "daysOfWeek": [
              1,
              2,
              3,
              4,
              5,
              6,
              7
            ]
          }
        ],
        "holidayHours": [],
        "specialHours": []
      },
      "phone": "844.747.5435",
      "attributes": [],
      "coordinates": {
        "lat": 40.214073,
        "lon": -75.496506
      },
      "temporarilyClosed": false,
      "reopeningDate": ""
    },
    {
      "id": "US01140",
      "crmStoreID": "1140",
      "storeNumber": "0011a00000k3DqAAAU",
      "address": {
        "street": "3248 Holland Rd",
        "city": "Virginia Beach",
        "country": "US",
        "state": "VA",
        "longState": "Virginia",
        "zip": "23453"
      },
      "name": "Virginia Beach VA - Holland Rd",
      "hours": {
        "regularHours": [
          {
            "days": "Monday – Sunday",
            "hours": "9am – 9pm",
            "openingTime": "13:00:00Z",
            "closingTime": "01:00:00Z",
            "daysOfWeek": [
              1,
              2,
              3,
              4,
              5,
              6,
              7
            ]
          }
        ],
        "holidayHours": [],
        "specialHours": []
      },
      "phone": "844.747.5435",
      "attributes": [],
      "coordinates": {
        "lat": 36.797924,
        "lon": -76.083626
      },
      "temporarilyClosed": false,
      "reopeningDate": ""
    },
    {
      "id": "US01141",
      "crmStoreID": "1141",
      "storeNumber": "0011a00000k3DqBAAU",
      "address": {
        "street": "1866 Woodruff Road",
        "city": "Greenville",
        "country": "US",
        "state": "SC",
        "longState": "South Carolina",
        "zip": "29607"
      },
      "name": "Greenville SC - Woodruff Rd",
      "hours": {
        "regularHours": [
          {
            "days": "Monday – Sunday",
            "hours": "8am – 9pm",
            "openingTime": "12:00:00Z",
            "closingTime": "01:00:00Z",
            "daysOfWeek": [
              1,
              2,
              3,
              4,
              5,
              6,
              7
            ]
          }
        ],
        "holidayHours": [],
        "specialHours": []
      },
      "phone": "844.747.5435",
      "attributes": [],
      "coordinates": {
        "lat": 34.819748,
        "lon": -82.265785
      },
      "temporarilyClosed": false,
      "reopeningDate": ""
    },
    {
      "id": "US01157",
      "crmStoreID": "1157",
      "storeNumber": "0012L000010PNNIQA4",
      "address": {
        "street": "4115 Buffaloe Road",
        "city": "Raleigh",
        "country": "US",
        "state": "NC",
        "longState": "North Carolina",
        "zip": "27616"
      },
      "name": "Raleigh NC - Buffaloe Road",
      "hours": {
        "regularHours": [
          {
            "days": "Monday – Sunday",
            "hours": "8am – 10pm",
            "openingTime": "12:00:00Z",
            "closingTime": "02:00:00Z",
            "daysOfWeek": [
              1,
              2,
              3,
              4,
              5,
              6,
              7
            ]
          }
        ],
        "holidayHours": [],
        "specialHours": []
      },
      "phone": "844.747.5435",
      "attributes": [],
      "coordinates": {
        "lat": 35.831455,
        "lon": -78.56913
      },
      "temporarilyClosed": false,
      "reopeningDate": ""
    },
    {
      "id": "US01159",
      "crmStoreID": "1159",
      "storeNumber": "0012L000010PNN6QAO",
      "address": {
        "street": "8601 Baltimore Avenue",
        "city": "College Park",
        "country": "US",
        "state": "MD",
        "longState": "Maryland",
        "zip": "20740"
      },
      "name": "College Park MD - Baltimore Avenue",
      "hours": {
        "regularHours": [
          {
            "days": "Monday – Sunday",
            "hours": "8am – 10pm",
            "openingTime": "12:00:00Z",
            "closingTime": "02:00:00Z",
            "daysOfWeek": [
              1,
              2,
              3,
              4,
              5,
              6,
              7
            ]
          }
        ],
        "holidayHours": [],
        "specialHours": []
      },
      "phone": "844.747.5435",
      "attributes": [],
      "coordinates": {
        "lat": 38.996243,
        "lon": -76.93173
      },
      "temporarilyClosed": false,
      "reopeningDate": ""
    },
    {
      "id": "US01161",
      "crmStoreID": "1161",
      "storeNumber": "0012L000010PNNYQA4",
      "address": {
        "street": "4520 Margaret Wallace Rd",
        "city": "Matthews",
        "country": "US",
        "state": "NC",
        "longState": "North Carolina",
        "zip": "28105"
      },
      "name": "Matthews NC - Margaret Wallace Rd",
      "hours": {
        "regularHours": [
          {
            "days": "Monday – Sunday",
            "hours": "8am – 9pm",
            "openingTime": "12:00:00Z",
            "closingTime": "01:00:00Z",
            "daysOfWeek": [
              1,
              2,
              3,
              4,
              5,
              6,
              7
            ]
          }
        ],
        "holidayHours": [],
        "specialHours": []
      },
      "phone": "844.747.5435",
      "attributes": [],
      "coordinates": {
        "lat": 35.171597,
        "lon": -80.708
      },
      "temporarilyClosed": false,
      "reopeningDate": ""
    },
    {
      "id": "US01162",
      "crmStoreID": "1162",
      "storeNumber": "0012L000010PNNZQA4",
      "address": {
        "street": "400 NJ-38",
        "city": "Cherry Hill",
        "country": "US",
        "state": "NJ",
        "longState": "New Jersey",
        "zip": "08002"
      },
      "name": "Cherry Hill NJ - Route 38",
      "hours": {
        "regularHours": [
          {
            "days": "Monday – Sunday",
            "hours": "8am – 9pm",
            "openingTime": "12:00:00Z",
            "closingTime": "01:00:00Z",
            "daysOfWeek": [
              1,
              2,
              3,
              4,
              5,
              6,
              7
            ]
          }
        ],
        "holidayHours": [],
        "specialHours": []
      },
      "phone": "844.747.5435",
      "attributes": [],
      "coordinates": {
        "lat": 39.936123,
        "lon": -75.04984
      },
      "temporarilyClosed": false,
      "reopeningDate": ""
    },
    {
      "id": "US01163",
      "crmStoreID": "1163",
      "storeNumber": "0011a00000nj85MAAQ",
      "address": {
        "street": "8930 Christenbury Pkwy",
        "city": "Concord",
        "country": "US",
        "state": "NC",
        "longState": "North Carolina",
        "zip": "28027"
      },
      "name": "Concord NC - Christenbury Pkwy",
      "hours": {
        "regularHours": [
          {
            "days": "Monday – Sunday",
            "hours": "8am – 9pm",
            "openingTime": "12:00:00Z",
            "closingTime": "01:00:00Z",
            "daysOfWeek": [
              1,
              2,
              3,
              4,
              5,
              6,
              7
            ]
          }
        ],
        "holidayHours": [],
        "specialHours": []
      },
      "phone": "844.747.5435",
      "attributes": [],
      "coordinates": {
        "lat": 35.37639,
        "lon": -80.73169
      },
      "temporarilyClosed": false,
      "reopeningDate": ""
    },
    {
      "id": "US01166",
      "crmStoreID": "1166",
      "storeNumber": "0012L000010PNNdQAO",
      "address": {
        "street": "150 N DuPont Hwy",
        "city": "Dover",
        "country": "US",
        "state": "DE",
        "longState": "Delaware",
        "zip": "19901"
      },
      "name": "Dover DE - N DuPont Hwy",
      "hours": {
        "regularHours": [
          {
            "days": "Monday – Sunday",
            "hours": "8am – 9pm",
            "openingTime": "12:00:00Z",
            "closingTime": "01:00:00Z",
            "daysOfWeek": [
              1,
              2,
              3,
              4,
              5,
              6,
              7
            ]
          }
        ],
        "holidayHours": [],
        "specialHours": []
      },
      "phone": "844.747.5435",
      "attributes": [],
      "coordinates": {
        "lat": 39.166973,
        "lon": -75.51696
      },
      "temporarilyClosed": false,
      "reopeningDate": ""
    },
    {
      "id": "US01170",
      "crmStoreID": "1170",
      "storeNumber": "0011a00000nj85OAAQ",
      "address": {
        "street": "4844 Floyd Rd SW",
        "city": "Mableton",
        "country": "US",
        "state": "GA",
        "longState": "Georgia",
        "zip": "30126"
      },
      "name": "Mableton GA - Floyd Rd SW",
      "hours": {
        "regularHours": [
          {
            "days": "Monday – Sunday",
            "hours": "8am – 9pm",
            "openingTime": "12:00:00Z",
            "closingTime": "01:00:00Z",
            "daysOfWeek": [
              1,
              2,
              3,
              4,
              5,
              6,
              7
            ]
          }
        ],
        "holidayHours": [],
        "specialHours": []
      },
      "phone": "844.747.5435",
      "attributes": [],
      "coordinates": {
        "lat": 33.83697,
        "lon": -84.57664
      },
      "temporarilyClosed": false,
      "reopeningDate": ""
    },
    {
      "id": "US01176",
      "crmStoreID": "1176",
      "storeNumber": "0012L000010PNNAQA4",
      "address": {
        "street": "514 US 9",
        "city": "Lacey",
        "country": "US",
        "state": "NJ",
        "longState": "New Jersey",
        "zip": "08734"
      },
      "name": "Lacey NJ - US 9",
      "hours": {
        "regularHours": [
          {
            "days": "Monday – Sunday",
            "hours": "8am – 9pm",
            "openingTime": "12:00:00Z",
            "closingTime": "01:00:00Z",
            "daysOfWeek": [
              1,
              2,
              3,
              4,
              5,
              6,
              7
            ]
          }
        ],
        "holidayHours": [],
        "specialHours": []
      },
      "phone": "844.747.5435",
      "attributes": [],
      "coordinates": {
        "lat": 39.856625,
        "lon": -74.179375
      },
      "temporarilyClosed": false,
      "reopeningDate": ""
    },
    {
      "id": "US01177",
      "crmStoreID": "1177",
      "storeNumber": "0011a00000nj8RwAAI",
      "address": {
        "street": "136 NJSH 35",
        "city": "Eatontown",
        "country": "US",
        "state": "NJ",
        "longState": "New Jersey",
        "zip": "07724"
      },
      "name": "Eatontown NJ - NJSH 35",
      "hours": {
        "regularHours": [
          {
            "days": "Monday – Sunday",
            "hours": "8am – 9pm",
            "openingTime": "12:00:00Z",
            "closingTime": "01:00:00Z",
            "daysOfWeek": [
              1,
              2,
              3,
              4,
              5,
              6,
              7
            ]
          }
        ],
        "holidayHours": [],
        "specialHours": []
      },
      "phone": "844.747.5435",
      "attributes": [],
      "coordinates": {
        "lat": 40.295864,
        "lon": -74.0545
      },
      "temporarilyClosed": false,
      "reopeningDate": ""
    },
    {
      "id": "US01186",
      "crmStoreID": "1186",
      "storeNumber": "0012L000014Q0oGQAS",
      "address": {
        "street": "8155 Tara Blvd",
        "city": "Jonesboro",
        "country": "US",
        "state": "GA",
        "longState": "Georgia",
        "zip": "30236"
      },
      "name": "Jonesboro GA - Tara Blvd",
      "hours": {
        "regularHours": [
          {
            "days": "Monday – Sunday",
            "hours": "8am – 9pm",
            "openingTime": "12:00:00Z",
            "closingTime": "01:00:00Z",
            "daysOfWeek": [
              1,
              2,
              3,
              4,
              5,
              6,
              7
            ]
          }
        ],
        "holidayHours": [],
        "specialHours": []
      },
      "phone": "844.747.5435",
      "attributes": [],
      "coordinates": {
        "lat": 33.530273,
        "lon": -84.363655
      },
      "temporarilyClosed": false,
      "reopeningDate": ""
    },
    {
      "id": "US01199",
      "crmStoreID": "1199",
      "storeNumber": "0011a00000nj4k7AAA",
      "address": {
        "street": "4700 W Broad St",
        "city": "Richmond",
        "country": "US",
        "state": "VA",
        "longState": "Virginia",
        "zip": "23230"
      },
      "name": "Richmond VA - 4700 W Broad St",
      "hours": {
        "regularHours": [
          {
            "days": "Monday – Sunday",
            "hours": "8am – 9pm",
            "openingTime": "12:00:00Z",
            "closingTime": "01:00:00Z",
            "daysOfWeek": [
              1,
              2,
              3,
              4,
              5,
              6,
              7
            ]
          }
        ],
        "holidayHours": [],
        "specialHours": []
      },
      "phone": "844.747.5435",
      "attributes": [],
      "coordinates": {
        "lat": 37.57987,
        "lon": -77.49092
      },
      "temporarilyClosed": false,
      "reopeningDate": ""
    },
    {
      "id": "US01203",
      "crmStoreID": "1203",
      "storeNumber": "0011a00000nj85LAAQ",
      "address": {
        "street": "420 MacDade Blvd",
        "city": "Folsom",
        "country": "US",
        "state": "PA",
        "longState": "Pennsylvania",
        "zip": "19033"
      },
      "name": "Folsom PA - MacDade Blvd",
      "hours": {
        "regularHours": [
          {
            "days": "Monday – Sunday",
            "hours": "8am – 9pm",
            "openingTime": "12:00:00Z",
            "closingTime": "01:00:00Z",
            "daysOfWeek": [
              1,
              2,
              3,
              4,
              5,
              6,
              7
            ]
          }
        ],
        "holidayHours": [],
        "specialHours": []
      },
      "phone": "844.747.5435",
      "attributes": [],
      "coordinates": {
        "lat": 39.888824,
        "lon": -75.326164
      },
      "temporarilyClosed": false,
      "reopeningDate": ""
    },
    {
      "id": "US01208",
      "crmStoreID": "1208",
      "storeNumber": "0012L000014Q0o1QAC",
      "address": {
        "street": "3520 Sugarloaf Parkway",
        "city": "Lawrenceville",
        "country": "US",
        "state": "GA",
        "longState": "Georgia",
        "zip": "30044"
      },
      "name": "Lawrenceville GA -Sugarloaf Parkway",
      "hours": {
        "regularHours": [
          {
            "days": "Monday – Sunday",
            "hours": "8am – 9pm",
            "openingTime": "12:00:00Z",
            "closingTime": "01:00:00Z",
            "daysOfWeek": [
              1,
              2,
              3,
              4,
              5,
              6,
              7
            ]
          }
        ],
        "holidayHours": [],
        "specialHours": []
      },
      "phone": "844.747.5435",
      "attributes": [],
      "coordinates": {
        "lat": 33.925987,
        "lon": -84.02162
      },
      "temporarilyClosed": false,
      "reopeningDate": ""
    },
    {
      "id": "US01215",
      "crmStoreID": "1215",
      "storeNumber": "0011a00000nibW7AAI",
      "address": {
        "street": "21285 Coopers Hawk Drive",
        "city": "Broadlands",
        "country": "US",
        "state": "VA",
        "longState": "Virginia",
        "zip": "20148-3807"
      },
      "name": "Ashburn VA - Broadlands Blvd",
      "hours": {
        "regularHours": [
          {
            "days": "Monday – Sunday",
            "hours": "8am – 9pm",
            "openingTime": "12:00:00Z",
            "closingTime": "01:00:00Z",
            "daysOfWeek": [
              1,
              2,
              3,
              4,
              5,
              6,
              7
            ]
          }
        ],
        "holidayHours": [],
        "specialHours": []
      },
      "phone": "844.747.5435",
      "attributes": [],
      "coordinates": {
        "lat": 39.06635,
        "lon": -77.48449
      },
      "temporarilyClosed": false,
      "reopeningDate": ""
    },
    {
      "id": "US01229",
      "crmStoreID": "1229",
      "storeNumber": "0012L000010PNNMQA4",
      "address": {
        "street": "6801 Commerce Street",
        "city": "Springfield",
        "country": "US",
        "state": "VA",
        "longState": "Virginia",
        "zip": "22150"
      },
      "name": "Springfield VA - Commerce Street",
      "hours": {
        "regularHours": [
          {
            "days": "Monday – Sunday",
            "hours": "8am – 9pm",
            "openingTime": "12:00:00Z",
            "closingTime": "01:00:00Z",
            "daysOfWeek": [
              1,
              2,
              3,
              4,
              5,
              6,
              7
            ]
          }
        ],
        "holidayHours": [],
        "specialHours": []
      },
      "phone": "844.747.5435",
      "attributes": [],
      "coordinates": {
        "lat": 38.782265,
        "lon": -77.18416
      },
      "temporarilyClosed": false,
      "reopeningDate": ""
    },
    {
      "id": "US01243",
      "crmStoreID": "1243",
      "storeNumber": "0012L000014Q0oDQAS",
      "address": {
        "street": "9795 Liberia Ave",
        "city": "Manassas",
        "country": "US",
        "state": "VA",
        "longState": "Virginia",
        "zip": "20110"
      },
      "name": "Manassas VA - Liberia Ave",
      "hours": {
        "regularHours": [
          {
            "days": "Monday – Sunday",
            "hours": "8am – 9pm",
            "openingTime": "12:00:00Z",
            "closingTime": "01:00:00Z",
            "daysOfWeek": [
              1,
              2,
              3,
              4,
              5,
              6,
              7
            ]
          }
        ],
        "holidayHours": [],
        "specialHours": []
      },
      "phone": "844.747.5435",
      "attributes": [],
      "coordinates": {
        "lat": 38.7429,
        "lon": -77.45049
      },
      "temporarilyClosed": false,
      "reopeningDate": "2025-08-01"
    },
    {
      "id": "US01246",
      "crmStoreID": "1246",
      "storeNumber": "0012L000010PNNUQA4",
      "address": {
        "street": "2613 Ridge Pike",
        "city": "Trooper",
        "country": "US",
        "state": "PA",
        "longState": "Pennsylvania",
        "zip": "19403"
      },
      "name": "Trooper PA - Ridge Pike",
      "hours": {
        "regularHours": [
          {
            "days": "Monday – Sunday",
            "hours": "8am – 9pm",
            "openingTime": "12:00:00Z",
            "closingTime": "01:00:00Z",
            "daysOfWeek": [
              1,
              2,
              3,
              4,
              5,
              6,
              7
            ]
          }
        ],
        "holidayHours": [],
        "specialHours": []
      },
      "phone": "844.747.5435",
      "attributes": [],
      "coordinates": {
        "lat": 40.14304,
        "lon": -75.3907
      },
      "temporarilyClosed": false,
      "reopeningDate": ""
    },
    {
      "id": "US01247",
      "crmStoreID": "1247",
      "storeNumber": "0012L000014Q0nwQAC",
      "address": {
        "street": "2985 Peachtree Pkwy",
        "city": "Suwanee",
        "country": "US",
        "state": "GA",
        "longState": "Georgia",
        "zip": "30024"
      },
      "name": "Suwanee GA - Peachtree Parkway",
      "hours": {
        "regularHours": [
          {
            "days": "Monday – Sunday",
            "hours": "8am – 9pm",
            "openingTime": "12:00:00Z",
            "closingTime": "01:00:00Z",
            "daysOfWeek": [
              1,
              2,
              3,
              4,
              5,
              6,
              7
            ]
          }
        ],
        "holidayHours": [],
        "specialHours": []
      },
      "phone": "844.747.5435",
      "attributes": [],
      "coordinates": {
        "lat": 34.090015,
        "lon": -84.16799
      },
      "temporarilyClosed": false,
      "reopeningDate": ""
    },
    {
      "id": "US01248",
      "crmStoreID": "1248",
      "storeNumber": "0011a00000nj85PAAQ",
      "address": {
        "street": "2641 Powder Springs Rd SW",
        "city": "Marietta",
        "country": "US",
        "state": "GA",
        "longState": "Georgia",
        "zip": "30064"
      },
      "name": "Marietta GA - Powder Springs Rd SW",
      "hours": {
        "regularHours": [
          {
            "days": "Monday – Sunday",
            "hours": "8am – 9pm",
            "openingTime": "12:00:00Z",
            "closingTime": "01:00:00Z",
            "daysOfWeek": [
              1,
              2,
              3,
              4,
              5,
              6,
              7
            ]
          }
        ],
        "holidayHours": [],
        "specialHours": []
      },
      "phone": "844.747.5435",
      "attributes": [],
      "coordinates": {
        "lat": 33.867943,
        "lon": -84.63015
      },
      "temporarilyClosed": false,
      "reopeningDate": ""
    },
    {
      "id": "US01250",
      "crmStoreID": "1250",
      "storeNumber": "0012L000014Q0oAQAS",
      "address": {
        "street": "9175 Roosevelt Blvd",
        "city": "Philadelphia",
        "country": "US",
        "state": "PA",
        "longState": "Pennsylvania",
        "zip": "19114"
      },
      "name": "Philadelphia PA -Roosevelt Blvd",
      "hours": {
        "regularHours": [
          {
            "days": "Monday – Sunday",
            "hours": "8am – 9pm",
            "openingTime": "12:00:00Z",
            "closingTime": "01:00:00Z",
            "daysOfWeek": [
              1,
              2,
              3,
              4,
              5,
              6,
              7
            ]
          }
        ],
        "holidayHours": [],
        "specialHours": []
      },
      "phone": "844.747.5435",
      "attributes": [],
      "coordinates": {
        "lat": 40.076675,
        "lon": -75.0324
      },
      "temporarilyClosed": false,
      "reopeningDate": ""
    },
    {
      "id": "US01262",
      "crmStoreID": "1262",
      "storeNumber": "0011a00000nj85QAAQ",
      "address": {
        "street": "3821 Stone Mountain Highway",
        "city": "Snellville",
        "country": "US",
        "state": "GA",
        "longState": "Georgia",
        "zip": "30039"
      },
      "name": "Snellville GA - Stone Mountain Highway",
      "hours": {
        "regularHours": [
          {
            "days": "Monday – Sunday",
            "hours": "8am – 9pm",
            "openingTime": "12:00:00Z",
            "closingTime": "01:00:00Z",
            "daysOfWeek": [
              1,
              2,
              3,
              4,
              5,
              6,
              7
            ]
          }
        ],
        "holidayHours": [],
        "specialHours": []
      },
      "phone": "844.747.5435",
      "attributes": [],
      "coordinates": {
        "lat": 33.840572,
        "lon": -84.06395
      },
      "temporarilyClosed": false,
      "reopeningDate": ""
    },
    {
      "id": "US01285",
      "crmStoreID": "1285",
      "storeNumber": "0012L000010PNN7QAO",
      "address": {
        "street": "733 Dual Highway",
        "city": "Hagerstown",
        "country": "US",
        "state": "MD",
        "longState": "Maryland",
        "zip": "21740"
      },
      "name": "Hagerstown MD - Dual Highway",
      "hours": {
        "regularHours": [
          {
            "days": "Monday – Sunday",
            "hours": "9am – 9pm",
            "openingTime": "13:00:00Z",
            "closingTime": "01:00:00Z",
            "daysOfWeek": [
              1,
              2,
              3,
              4,
              5,
              6,
              7
            ]
          }
        ],
        "holidayHours": [],
        "specialHours": []
      },
      "phone": "844.747.5435",
      "attributes": [],
      "coordinates": {
        "lat": 39.635628,
        "lon": -77.706566
      },
      "temporarilyClosed": false,
      "reopeningDate": ""
    },
    {
      "id": "US01290",
      "crmStoreID": "1290",
      "storeNumber": "0012L00001AaeR4QAJ",
      "address": {
        "street": "6038 Covington Highway",
        "city": "Decatur",
        "country": "US",
        "state": "GA",
        "longState": "Georgia",
        "zip": "30035"
      },
      "name": "Decatur GA - Stonecrest",
      "hours": {
        "regularHours": [
          {
            "days": "Monday – Sunday",
            "hours": "8am – 9pm",
            "openingTime": "12:00:00Z",
            "closingTime": "01:00:00Z",
            "daysOfWeek": [
              1,
              2,
              3,
              4,
              5,
              6,
              7
            ]
          }
        ],
        "holidayHours": [],
        "specialHours": []
      },
      "phone": "844.747.5435",
      "attributes": [],
      "coordinates": {
        "lat": 33.72369,
        "lon": -84.1716
      },
      "temporarilyClosed": false,
      "reopeningDate": ""
    },
    {
      "id": "US01299",
      "crmStoreID": "1299",
      "storeNumber": "0012L000010PNNGQA4",
      "address": {
        "street": "1030 Independence Blvd",
        "city": "Virginia Beach",
        "country": "US",
        "state": "VA",
        "longState": "Virginia",
        "zip": "23455"
      },
      "name": "Virginia Beach VA - Independence Blvd",
      "hours": {
        "regularHours": [
          {
            "days": "Monday – Sunday",
            "hours": "9am – 8pm",
            "openingTime": "13:00:00Z",
            "closingTime": "00:00:00Z",
            "daysOfWeek": [
              1,
              2,
              3,
              4,
              5,
              6,
              7
            ]
          }
        ],
        "holidayHours": [],
        "specialHours": []
      },
      "phone": "844.747.5435",
      "attributes": [],
      "coordinates": {
        "lat": 36.87313,
        "lon": -76.13411
      },
      "temporarilyClosed": false,
      "reopeningDate": ""
    },
    {
      "id": "US01342",
      "crmStoreID": "1342",
      "storeNumber": "0012L000014Q0oeQAC",
      "address": {
        "street": "601 Highway 130 S",
        "city": "Cinnaminson",
        "country": "US",
        "state": "NJ",
        "longState": "New Jersey",
        "zip": "08077"
      },
      "name": "Cinnaminson NJ - Route 130",
      "hours": {
        "regularHours": [
          {
            "days": "Monday – Sunday",
            "hours": "8am – 9pm",
            "openingTime": "12:00:00Z",
            "closingTime": "01:00:00Z",
            "daysOfWeek": [
              1,
              2,
              3,
              4,
              5,
              6,
              7
            ]
          }
        ],
        "holidayHours": [],
        "specialHours": []
      },
      "phone": "844.747.5435",
      "attributes": [],
      "coordinates": {
        "lat": 39.993668,
        "lon": -74.99945
      },
      "temporarilyClosed": false,
      "reopeningDate": ""
    },
    {
      "id": "US01352",
      "crmStoreID": "1352",
      "storeNumber": "0012L000010PNNWQA4",
      "address": {
        "street": "2001 Columbia Ave",
        "city": "Lancaster",
        "country": "US",
        "state": "PA",
        "longState": "Pennsylvania",
        "zip": "17603"
      },
      "name": "Lancaster PA - Columbia Ave",
      "hours": {
        "regularHours": [
          {
            "days": "Monday – Sunday",
            "hours": "8am – 9pm",
            "openingTime": "12:00:00Z",
            "closingTime": "01:00:00Z",
            "daysOfWeek": [
              1,
              2,
              3,
              4,
              5,
              6,
              7
            ]
          }
        ],
        "holidayHours": [],
        "specialHours": []
      },
      "phone": "844.747.5435",
      "attributes": [],
      "coordinates": {
        "lat": 40.039127,
        "lon": -76.35899
      },
      "temporarilyClosed": false,
      "reopeningDate": ""
    },
    {
      "id": "US01372",
      "crmStoreID": "1372",
      "storeNumber": "0011a00000ojhytAAA",
      "address": {
        "street": "283 Platinum Ave",
        "city": "Staten Island",
        "country": "US",
        "state": "NY",
        "longState": "New York",
        "zip": "10314"
      },
      "name": "Staten Island NY - Platinum",
      "hours": {
        "regularHours": [
          {
            "days": "Monday – Sunday",
            "hours": "8am – 10pm",
            "openingTime": "12:00:00Z",
            "closingTime": "02:00:00Z",
            "daysOfWeek": [
              1,
              2,
              3,
              4,
              5,
              6,
              7
            ]
          }
        ],
        "holidayHours": [],
        "specialHours": []
      },
      "phone": "844.747.5435",
      "attributes": [],
      "coordinates": {
        "lat": 40.57901,
        "lon": -74.16823
      },
      "temporarilyClosed": false,
      "reopeningDate": ""
    },
    {
      "id": "US01394",
      "crmStoreID": "1394",
      "storeNumber": "0012L000010PNNNQA4",
      "address": {
        "street": "44175  Ashbrook Marketplace Plaza",
        "city": "Ashburn",
        "country": "US",
        "state": "VA",
        "longState": "Virginia",
        "zip": "20147"
      },
      "name": "Ashburn VA - Ashbrook Marketplace",
      "hours": {
        "regularHours": [
          {
            "days": "Monday – Sunday",
            "hours": "8am – 9pm",
            "openingTime": "12:00:00Z",
            "closingTime": "01:00:00Z",
            "daysOfWeek": [
              1,
              2,
              3,
              4,
              5,
              6,
              7
            ]
          }
        ],
        "holidayHours": [],
        "specialHours": []
      },
      "phone": "844.747.5435",
      "attributes": [],
      "coordinates": {
        "lat": 39.060333,
        "lon": -77.47347
      },
      "temporarilyClosed": false,
      "reopeningDate": ""
    },
    {
      "id": "US01407",
      "crmStoreID": "1407",
      "storeNumber": "0012L000014Q0olQAC",
      "address": {
        "street": "1616 Pulaski Highway",
        "city": "Newark",
        "country": "US",
        "state": "DE",
        "longState": "Delaware",
        "zip": "19702"
      },
      "name": "Newark DE - Bear",
      "hours": {
        "regularHours": [
          {
            "days": "Monday – Sunday",
            "hours": "8am – 9pm",
            "openingTime": "12:00:00Z",
            "closingTime": "01:00:00Z",
            "daysOfWeek": [
              1,
              2,
              3,
              4,
              5,
              6,
              7
            ]
          }
        ],
        "holidayHours": [],
        "specialHours": []
      },
      "phone": "844.747.5435",
      "attributes": [],
      "coordinates": {
        "lat": 39.619663,
        "lon": -75.691895
      },
      "temporarilyClosed": false,
      "reopeningDate": ""
    },
    {
      "id": "US01409",
      "crmStoreID": "1409",
      "storeNumber": "0012L00001AaeR8QAJ",
      "address": {
        "street": "19225 Montgomery Village Avenue",
        "city": "Montgomery Village",
        "country": "US",
        "state": "MD",
        "longState": "Maryland",
        "zip": "20886"
      },
      "name": "Montgomery Village MD - Montgomery Village Ave",
      "hours": {
        "regularHours": [
          {
            "days": "Monday – Sunday",
            "hours": "8am – 9pm",
            "openingTime": "12:00:00Z",
            "closingTime": "01:00:00Z",
            "daysOfWeek": [
              1,
              2,
              3,
              4,
              5,
              6,
              7
            ]
          }
        ],
        "holidayHours": [],
        "specialHours": []
      },
      "phone": "844.747.5435",
      "attributes": [],
      "coordinates": {
        "lat": 39.17165,
        "lon": -77.20334
      },
      "temporarilyClosed": false,
      "reopeningDate": ""
    },
    {
      "id": "US01410",
      "crmStoreID": "1410",
      "storeNumber": "0012L000010PNNVQA4",
      "address": {
        "street": "80 New Bridge Road",
        "city": "Bergenfield",
        "country": "US",
        "state": "NJ",
        "longState": "New Jersey",
        "zip": "07621"
      },
      "name": "Bergenfield NJ - New Bridge Road",
      "hours": {
        "regularHours": [
          {
            "days": "Monday – Sunday",
            "hours": "8am – 9pm",
            "openingTime": "12:00:00Z",
            "closingTime": "01:00:00Z",
            "daysOfWeek": [
              1,
              2,
              3,
              4,
              5,
              6,
              7
            ]
          }
        ],
        "holidayHours": [],
        "specialHours": []
      },
      "phone": "844.747.5435",
      "attributes": [],
      "coordinates": {
        "lat": 40.913216,
        "lon": -74.00107
      },
      "temporarilyClosed": false,
      "reopeningDate": ""
    },
    {
      "id": "US01411",
      "crmStoreID": "1411",
      "storeNumber": "0012L000010PNNDQA4",
      "address": {
        "street": "1150 Welsh Road",
        "city": "Lansdale",
        "country": "US",
        "state": "PA",
        "longState": "Pennsylvania",
        "zip": "19446"
      },
      "name": "Lansdale PA - Welsh Road",
      "hours": {
        "regularHours": [
          {
            "days": "Monday – Sunday",
            "hours": "8am – 9pm",
            "openingTime": "12:00:00Z",
            "closingTime": "01:00:00Z",
            "daysOfWeek": [
              1,
              2,
              3,
              4,
              5,
              6,
              7
            ]
          }
        ],
        "holidayHours": [],
        "specialHours": []
      },
      "phone": "844.747.5435",
      "attributes": [],
      "coordinates": {
        "lat": 40.249485,
        "lon": -75.298805
      },
      "temporarilyClosed": false,
      "reopeningDate": ""
    },
    {
      "id": "US01412",
      "crmStoreID": "1412",
      "storeNumber": "0012L000010PNNbQAO",
      "address": {
        "street": "Suite R70 3500 Oleander Dr",
        "city": "Wilmington",
        "country": "US",
        "state": "NC",
        "longState": "North Carolina",
        "zip": "28403"
      },
      "name": "Wilmington NC - Oleander Dr and Fordham Rd",
      "hours": {
        "regularHours": [
          {
            "days": "Monday – Sunday",
            "hours": "8am – 8pm",
            "openingTime": "12:00:00Z",
            "closingTime": "00:00:00Z",
            "daysOfWeek": [
              1,
              2,
              3,
              4,
              5,
              6,
              7
            ]
          }
        ],
        "holidayHours": [],
        "specialHours": []
      },
      "phone": "844.747.5435",
      "attributes": [],
      "coordinates": {
        "lat": 34.214718,
        "lon": -77.90166
      },
      "temporarilyClosed": false,
      "reopeningDate": ""
    },
    {
      "id": "US01413",
      "crmStoreID": "1413",
      "storeNumber": "0012L000010PNNCQA4",
      "address": {
        "street": "6026 Baltimore National Pike",
        "city": "Catonsville",
        "country": "US",
        "state": "MD",
        "longState": "Maryland",
        "zip": "21228"
      },
      "name": "Catonsville MD - Baltimore National Pike",
      "hours": {
        "regularHours": [
          {
            "days": "Monday – Sunday",
            "hours": "8am – 9pm",
            "openingTime": "12:00:00Z",
            "closingTime": "01:00:00Z",
            "daysOfWeek": [
              1,
              2,
              3,
              4,
              5,
              6,
              7
            ]
          }
        ],
        "holidayHours": [],
        "specialHours": []
      },
      "phone": "844.747.5435",
      "attributes": [],
      "coordinates": {
        "lat": 39.28494,
        "lon": -76.7448
      },
      "temporarilyClosed": false,
      "reopeningDate": ""
    },
    {
      "id": "US01415",
      "crmStoreID": "1415",
      "storeNumber": "0012L000014Q0oQQAS",
      "address": {
        "street": "6421 Bells Ferry Rd",
        "city": "Woodstock",
        "country": "US",
        "state": "GA",
        "longState": "Georgia",
        "zip": "30189"
      },
      "name": "Woodstock GA - Bells Ferry Rd",
      "hours": {
        "regularHours": [
          {
            "days": "Monday – Sunday",
            "hours": "8am – 9pm",
            "openingTime": "12:00:00Z",
            "closingTime": "01:00:00Z",
            "daysOfWeek": [
              1,
              2,
              3,
              4,
              5,
              6,
              7
            ]
          }
        ],
        "holidayHours": [],
        "specialHours": []
      },
      "phone": "844.747.5435",
      "attributes": [],
      "coordinates": {
        "lat": 34.11146,
        "lon": -84.58177
      },
      "temporarilyClosed": false,
      "reopeningDate": ""
    },
    {
      "id": "US01416",
      "crmStoreID": "1416",
      "storeNumber": "0012L000013tVBaQAM",
      "address": {
        "street": "670 Grand Central Station",
        "city": "Apex",
        "country": "US",
        "state": "NC",
        "longState": "North Carolina",
        "zip": "27502"
      },
      "name": "Apex NC - Apex Peakway",
      "hours": {
        "regularHours": [
          {
            "days": "Monday – Sunday",
            "hours": "8am – 9pm",
            "openingTime": "12:00:00Z",
            "closingTime": "01:00:00Z",
            "daysOfWeek": [
              1,
              2,
              3,
              4,
              5,
              6,
              7
            ]
          }
        ],
        "holidayHours": [],
        "specialHours": []
      },
      "phone": "844.747.5435",
      "attributes": [],
      "coordinates": {
        "lat": 35.73852,
        "lon": -78.842705
      },
      "temporarilyClosed": false,
      "reopeningDate": ""
    },
    {
      "id": "US01417",
      "crmStoreID": "1417",
      "storeNumber": "0012L000014Q0oWQAS",
      "address": {
        "street": "11225 S Tryon St",
        "city": "Charlotte",
        "country": "US",
        "state": "NC",
        "longState": "North Carolina",
        "zip": "28273"
      },
      "name": "Steele Creek NC - S Tryon St",
      "hours": {
        "regularHours": [
          {
            "days": "Monday – Sunday",
            "hours": "8am – 9pm",
            "openingTime": "12:00:00Z",
            "closingTime": "01:00:00Z",
            "daysOfWeek": [
              1,
              2,
              3,
              4,
              5,
              6,
              7
            ]
          }
        ],
        "holidayHours": [],
        "specialHours": []
      },
      "phone": "844.747.5435",
      "attributes": [],
      "coordinates": {
        "lat": 35.11512,
        "lon": -80.962326
      },
      "temporarilyClosed": false,
      "reopeningDate": ""
    },
    {
      "id": "US01418",
      "crmStoreID": "1418",
      "storeNumber": "0012L000014Q0okQAC",
      "address": {
        "street": "3010 S Church St",
        "city": "Burlington",
        "country": "US",
        "state": "NC",
        "longState": "North Carolina",
        "zip": "27215"
      },
      "name": "Burlington - S Church St",
      "hours": {
        "regularHours": [
          {
            "days": "Monday – Sunday",
            "hours": "8am – 9pm",
            "openingTime": "12:00:00Z",
            "closingTime": "01:00:00Z",
            "daysOfWeek": [
              1,
              2,
              3,
              4,
              5,
              6,
              7
            ]
          }
        ],
        "holidayHours": [],
        "specialHours": []
      },
      "phone": "844.747.5435",
      "attributes": [],
      "coordinates": {
        "lat": 36.080505,
        "lon": -79.49146
      },
      "temporarilyClosed": false,
      "reopeningDate": ""
    },
    {
      "id": "US01419",
      "crmStoreID": "1419",
      "storeNumber": "0012L000010PNNJQA4",
      "address": {
        "street": "8667 Belair Road",
        "city": "Nottingham",
        "country": "US",
        "state": "MD",
        "longState": "Maryland",
        "zip": "21236"
      },
      "name": "Perry Hall MD - Belair Road",
      "hours": {
        "regularHours": [
          {
            "days": "Monday – Sunday",
            "hours": "8am – 9pm",
            "openingTime": "12:00:00Z",
            "closingTime": "01:00:00Z",
            "daysOfWeek": [
              1,
              2,
              3,
              4,
              5,
              6,
              7
            ]
          }
        ],
        "holidayHours": [],
        "specialHours": []
      },
      "phone": "844.747.5435",
      "attributes": [],
      "coordinates": {
        "lat": 39.39095,
        "lon": -76.48941
      },
      "temporarilyClosed": false,
      "reopeningDate": ""
    },
    {
      "id": "US01420",
      "crmStoreID": "1420",
      "storeNumber": "0012L00001AaeR9QAJ",
      "address": {
        "street": "690 Holcomb Bridge Road",
        "city": "Roswell",
        "country": "US",
        "state": "GA",
        "longState": "Georgia",
        "zip": "30076"
      },
      "name": "Roswell GA - Holcomb Bridge Rd",
      "hours": {
        "regularHours": [
          {
            "days": "Monday – Sunday",
            "hours": "8am – 9pm",
            "openingTime": "12:00:00Z",
            "closingTime": "01:00:00Z",
            "daysOfWeek": [
              1,
              2,
              3,
              4,
              5,
              6,
              7
            ]
          }
        ],
        "holidayHours": [],
        "specialHours": []
      },
      "phone": "844.747.5435",
      "attributes": [],
      "coordinates": {
        "lat": 34.03332,
        "lon": -84.33979
      },
      "temporarilyClosed": false,
      "reopeningDate": ""
    },
    {
      "id": "US01423",
      "crmStoreID": "1423",
      "storeNumber": "0012L000014Q0obQAC",
      "address": {
        "street": "789 St. George Ave",
        "city": "Woodbridge",
        "country": "US",
        "state": "NJ",
        "longState": "New Jersey",
        "zip": "07095"
      },
      "name": "Woodbridge NJ - St. George Ave",
      "hours": {
        "regularHours": [
          {
            "days": "Monday – Sunday",
            "hours": "8am – 9pm",
            "openingTime": "12:00:00Z",
            "closingTime": "01:00:00Z",
            "daysOfWeek": [
              1,
              2,
              3,
              4,
              5,
              6,
              7
            ]
          }
        ],
        "holidayHours": [],
        "specialHours": []
      },
      "phone": "844.747.5435",
      "attributes": [],
      "coordinates": {
        "lat": 40.566795,
        "lon": -74.28889
      },
      "temporarilyClosed": false,
      "reopeningDate": ""
    },
    {
      "id": "US01425",
      "crmStoreID": "1425",
      "storeNumber": "0012L000014Q0oRQAS",
      "address": {
        "street": "2770 Hooper Ave",
        "city": "Brick",
        "country": "US",
        "state": "NJ",
        "longState": "New Jersey",
        "zip": "08723"
      },
      "name": "Brick NJ - Hooper Ave",
      "hours": {
        "regularHours": [
          {
            "days": "Monday – Sunday",
            "hours": "8am – 9pm",
            "openingTime": "12:00:00Z",
            "closingTime": "01:00:00Z",
            "daysOfWeek": [
              1,
              2,
              3,
              4,
              5,
              6,
              7
            ]
          }
        ],
        "holidayHours": [],
        "specialHours": []
      },
      "phone": "844.747.5435",
      "attributes": [],
      "coordinates": {
        "lat": 40.056606,
        "lon": -74.135796
      },
      "temporarilyClosed": false,
      "reopeningDate": ""
    },
    {
      "id": "US01426",
      "crmStoreID": "1426",
      "storeNumber": "0012L000012YgXyQAK",
      "address": {
        "street": "1912 Skibo Rd",
        "city": "Fayetteville",
        "country": "US",
        "state": "NC",
        "longState": "North Carolina",
        "zip": "28314"
      },
      "name": "Fayetteville NC - Skibo Rd",
      "hours": {
        "regularHours": [
          {
            "days": "Monday – Sunday",
            "hours": "8am – 9pm",
            "openingTime": "12:00:00Z",
            "closingTime": "01:00:00Z",
            "daysOfWeek": [
              1,
              2,
              3,
              4,
              5,
              6,
              7
            ]
          }
        ],
        "holidayHours": [],
        "specialHours": []
      },
      "phone": "844.747.5435",
      "attributes": [],
      "coordinates": {
        "lat": 35.07008,
        "lon": -78.965965
      },
      "temporarilyClosed": false,
      "reopeningDate": ""
    },
    {
      "id": "US01428",
      "crmStoreID": "1428",
      "storeNumber": "0012L00001AaeR5QAJ",
      "address": {
        "street": "2330 Peachtree Industrial Boulevard",
        "city": "Duluth",
        "country": "US",
        "state": "GA",
        "longState": "Georgia",
        "zip": "30097"
      },
      "name": "Duluth GA - Peachtree Industrial Blvd",
      "hours": {
        "regularHours": [
          {
            "days": "Monday – Sunday",
            "hours": "8am – 9pm",
            "openingTime": "12:00:00Z",
            "closingTime": "01:00:00Z",
            "daysOfWeek": [
              1,
              2,
              3,
              4,
              5,
              6,
              7
            ]
          }
        ],
        "holidayHours": [],
        "specialHours": []
      },
      "phone": "844.747.5435",
      "attributes": [],
      "coordinates": {
        "lat": 34.022808,
        "lon": -84.13822
      },
      "temporarilyClosed": false,
      "reopeningDate": ""
    },
    {
      "id": "US01429",
      "crmStoreID": "1429",
      "storeNumber": "0012L000014Q0oSQAS",
      "address": {
        "street": "2497 Brunswick Ave",
        "city": "Lawrenceville",
        "country": "US",
        "state": "NJ",
        "longState": "New Jersey",
        "zip": "08648"
      },
      "name": "Lawrenceville NJ - Brunswick Ave",
      "hours": {
        "regularHours": [
          {
            "days": "Monday – Sunday",
            "hours": "8am – 9pm",
            "openingTime": "12:00:00Z",
            "closingTime": "01:00:00Z",
            "daysOfWeek": [
              1,
              2,
              3,
              4,
              5,
              6,
              7
            ]
          }
        ],
        "holidayHours": [],
        "specialHours": []
      },
      "phone": "844.747.5435",
      "attributes": [],
      "coordinates": {
        "lat": 40.258526,
        "lon": -74.726456
      },
      "temporarilyClosed": false,
      "reopeningDate": ""
    },
    {
      "id": "US01430",
      "crmStoreID": "1430",
      "storeNumber": "0012L000014Q0oVQAS",
      "address": {
        "street": "670 Whitlock Ave SW",
        "city": "Marietta",
        "country": "US",
        "state": "GA",
        "longState": "Georgia",
        "zip": "30064"
      },
      "name": "Marietta GA - 670 Whitlock Ave SW",
      "hours": {
        "regularHours": [
          {
            "days": "Monday – Sunday",
            "hours": "8am – 9pm",
            "openingTime": "12:00:00Z",
            "closingTime": "01:00:00Z",
            "daysOfWeek": [
              1,
              2,
              3,
              4,
              5,
              6,
              7
            ]
          }
        ],
        "holidayHours": [],
        "specialHours": []
      },
      "phone": "844.747.5435",
      "attributes": [],
      "coordinates": {
        "lat": 33.952084,
        "lon": -84.571915
      },
      "temporarilyClosed": false,
      "reopeningDate": ""
    },
    {
      "id": "US01431",
      "crmStoreID": "1431",
      "storeNumber": "0012L000014Q0omQAC",
      "address": {
        "street": "779 Delsea Dr",
        "city": "Glassboro",
        "country": "US",
        "state": "NJ",
        "longState": "New Jersey",
        "zip": "08028"
      },
      "name": "Glassboro NJ - Delsea Dr.",
      "hours": {
        "regularHours": [
          {
            "days": "Monday – Sunday",
            "hours": "8am – 9pm",
            "openingTime": "12:00:00Z",
            "closingTime": "01:00:00Z",
            "daysOfWeek": [
              1,
              2,
              3,
              4,
              5,
              6,
              7
            ]
          }
        ],
        "holidayHours": [],
        "specialHours": []
      },
      "phone": "844.747.5435",
      "attributes": [],
      "coordinates": {
        "lat": 39.721924,
        "lon": -75.11543
      },
      "temporarilyClosed": false,
      "reopeningDate": ""
    },
    {
      "id": "US01433",
      "crmStoreID": "1433",
      "storeNumber": "0012L000014Q0oMQAS",
      "address": {
        "street": "10 South Ave",
        "city": "Garwood",
        "country": "US",
        "state": "NJ",
        "longState": "New Jersey",
        "zip": "07027"
      },
      "name": "Garwood - South Ave",
      "hours": {
        "regularHours": [
          {
            "days": "Monday – Sunday",
            "hours": "8am – 9pm",
            "openingTime": "12:00:00Z",
            "closingTime": "01:00:00Z",
            "daysOfWeek": [
              1,
              2,
              3,
              4,
              5,
              6,
              7
            ]
          }
        ],
        "holidayHours": [],
        "specialHours": []
      },
      "phone": "844.747.5435",
      "attributes": [],
      "coordinates": {
        "lat": 40.65292,
        "lon": -74.31535
      },
      "temporarilyClosed": false,
      "reopeningDate": ""
    },
    {
      "id": "US01434",
      "crmStoreID": "1434",
      "storeNumber": "0012L000014Q0oFQAS",
      "address": {
        "street": "500 Milltown Road",
        "city": "North Brunswick",
        "country": "US",
        "state": "NJ",
        "longState": "New Jersey",
        "zip": "08902"
      },
      "name": "North Brunswick NJ - Milltown Road",
      "hours": {
        "regularHours": [
          {
            "days": "Monday – Sunday",
            "hours": "8am – 9pm",
            "openingTime": "12:00:00Z",
            "closingTime": "01:00:00Z",
            "daysOfWeek": [
              1,
              2,
              3,
              4,
              5,
              6,
              7
            ]
          }
        ],
        "holidayHours": [],
        "specialHours": []
      },
      "phone": "844.747.5435",
      "attributes": [],
      "coordinates": {
        "lat": 40.464603,
        "lon": -74.45097
      },
      "temporarilyClosed": false,
      "reopeningDate": ""
    },
    {
      "id": "US01435",
      "crmStoreID": "1435",
      "storeNumber": "0012L000013mHUAQA2",
      "address": {
        "street": "11179 Route 29",
        "city": "Fairfax",
        "country": "US",
        "state": "VA",
        "longState": "Virginia",
        "zip": "22030"
      },
      "name": "Fairfax VA - Route 29",
      "hours": {
        "regularHours": [
          {
            "days": "Monday – Sunday",
            "hours": "8am – 9pm",
            "openingTime": "12:00:00Z",
            "closingTime": "01:00:00Z",
            "daysOfWeek": [
              1,
              2,
              3,
              4,
              5,
              6,
              7
            ]
          }
        ],
        "holidayHours": [],
        "specialHours": []
      },
      "phone": "844.747.5435",
      "attributes": [],
      "coordinates": {
        "lat": 38.850063,
        "lon": -77.33203
      },
      "temporarilyClosed": false,
      "reopeningDate": ""
    },
    {
      "id": "US01436",
      "crmStoreID": "1436",
      "storeNumber": "0012L00001K07bbQAB",
      "address": {
        "street": "2224 Town Center Drive SE",
        "city": "Washington",
        "country": "US",
        "state": "DC",
        "longState": "District Of Columbia",
        "zip": "20020"
      },
      "name": "Washington DC - Skyland Town Center",
      "hours": {
        "regularHours": [
          {
            "days": "Monday – Sunday",
            "hours": "9am – 9pm",
            "openingTime": "13:00:00Z",
            "closingTime": "01:00:00Z",
            "daysOfWeek": [
              1,
              2,
              3,
              4,
              5,
              6,
              7
            ]
          }
        ],
        "holidayHours": [],
        "specialHours": []
      },
      "phone": "844.747.5435",
      "attributes": [],
      "coordinates": {
        "lat": 38.861256,
        "lon": -76.96738
      },
      "temporarilyClosed": false,
      "reopeningDate": ""
    },
    {
      "id": "US01437",
      "crmStoreID": "1437",
      "storeNumber": "0012L000014Q0oXQAS",
      "address": {
        "street": "7700 Ritchie Hwy",
        "city": "Glen Burnie",
        "country": "US",
        "state": "MD",
        "longState": "Maryland",
        "zip": "21061"
      },
      "name": "Glen Burnie MD - Harundale Plaza",
      "hours": {
        "regularHours": [
          {
            "days": "Monday – Sunday",
            "hours": "8am – 9pm",
            "openingTime": "12:00:00Z",
            "closingTime": "01:00:00Z",
            "daysOfWeek": [
              1,
              2,
              3,
              4,
              5,
              6,
              7
            ]
          }
        ],
        "holidayHours": [],
        "specialHours": []
      },
      "phone": "844.747.5435",
      "attributes": [],
      "coordinates": {
        "lat": 39.151527,
        "lon": -76.6129
      },
      "temporarilyClosed": false,
      "reopeningDate": ""
    },
    {
      "id": "US01439",
      "crmStoreID": "1439",
      "storeNumber": "0012L000014Q0oBQAS",
      "address": {
        "street": "5270 Peachtree Pkwy NW",
        "city": "Peachtree Corners",
        "country": "US",
        "state": "GA",
        "longState": "Georgia",
        "zip": "30092"
      },
      "name": "Peachtree Corners GA - Peachtree Pkwy NW",
      "hours": {
        "regularHours": [
          {
            "days": "Monday – Sunday",
            "hours": "8am – 9pm",
            "openingTime": "12:00:00Z",
            "closingTime": "01:00:00Z",
            "daysOfWeek": [
              1,
              2,
              3,
              4,
              5,
              6,
              7
            ]
          }
        ],
        "holidayHours": [],
        "specialHours": []
      },
      "phone": "844.747.5435",
      "attributes": [],
      "coordinates": {
        "lat": 33.977608,
        "lon": -84.21764
      },
      "temporarilyClosed": false,
      "reopeningDate": ""
    },
    {
      "id": "US01440",
      "crmStoreID": "1440",
      "storeNumber": "0012L00001AaeRBQAZ",
      "address": {
        "street": "58 Broadway",
        "city": "Elmwood Park",
        "country": "US",
        "state": "NJ",
        "longState": "New Jersey",
        "zip": "07407"
      },
      "name": "Elmwood Park NJ - Broadway",
      "hours": {
        "regularHours": [
          {
            "days": "Monday – Sunday",
            "hours": "8am – 9pm",
            "openingTime": "12:00:00Z",
            "closingTime": "01:00:00Z",
            "daysOfWeek": [
              1,
              2,
              3,
              4,
              5,
              6,
              7
            ]
          }
        ],
        "holidayHours": [],
        "specialHours": []
      },
      "phone": "844.747.5435",
      "attributes": [],
      "coordinates": {
        "lat": 40.91813,
        "lon": -74.126
      },
      "temporarilyClosed": false,
      "reopeningDate": ""
    },
    {
      "id": "US01441",
      "crmStoreID": "1441",
      "storeNumber": "0012L00001K07bcQAB",
      "address": {
        "street": "4325 Bethelview Road",
        "city": "Cumming",
        "country": "US",
        "state": "GA",
        "longState": "Georgia",
        "zip": "30040"
      },
      "name": "Cumming GA - Bethelview Rd",
      "hours": {
        "regularHours": [
          {
            "days": "Monday – Sunday",
            "hours": "8am – 9pm",
            "openingTime": "12:00:00Z",
            "closingTime": "01:00:00Z",
            "daysOfWeek": [
              1,
              2,
              3,
              4,
              5,
              6,
              7
            ]
          }
        ],
        "holidayHours": [],
        "specialHours": []
      },
      "phone": "844.747.5435",
      "attributes": [],
      "coordinates": {
        "lat": 34.199413,
        "lon": -84.19671
      },
      "temporarilyClosed": false,
      "reopeningDate": ""
    },
    {
      "id": "US01442",
      "crmStoreID": "1442",
      "storeNumber": "0012L000014Q0nvQAC",
      "address": {
        "street": "3564 Penn Avenue",
        "city": "Reading",
        "country": "US",
        "state": "PA",
        "longState": "Pennsylvania",
        "zip": "19608"
      },
      "name": "Sinking Spring PA - Penn Avenue",
      "hours": {
        "regularHours": [
          {
            "days": "Monday – Sunday",
            "hours": "8am – 9pm",
            "openingTime": "12:00:00Z",
            "closingTime": "01:00:00Z",
            "daysOfWeek": [
              1,
              2,
              3,
              4,
              5,
              6,
              7
            ]
          }
        ],
        "holidayHours": [],
        "specialHours": []
      },
      "phone": "844.747.5435",
      "attributes": [],
      "coordinates": {
        "lat": 40.325504,
        "lon": -76.0118
      },
      "temporarilyClosed": false,
      "reopeningDate": ""
    },
    {
      "id": "US01443",
      "crmStoreID": "1443",
      "storeNumber": "0012L000014Q0oaQAC",
      "address": {
        "street": "20 Goldsborough Drive",
        "city": "Bayonne",
        "country": "US",
        "state": "NJ",
        "longState": "New Jersey",
        "zip": "07002"
      },
      "name": "Bayonne NJ - Harbor View Marketplace",
      "hours": {
        "regularHours": [
          {
            "days": "Monday – Sunday",
            "hours": "8am – 10pm",
            "openingTime": "12:00:00Z",
            "closingTime": "02:00:00Z",
            "daysOfWeek": [
              1,
              2,
              3,
              4,
              5,
              6,
              7
            ]
          }
        ],
        "holidayHours": [],
        "specialHours": []
      },
      "phone": "844.747.5435",
      "attributes": [],
      "coordinates": {
        "lat": 40.670704,
        "lon": -74.10705
      },
      "temporarilyClosed": false,
      "reopeningDate": ""
    },
    {
      "id": "US01444",
      "crmStoreID": "1444",
      "storeNumber": "0012L000014Q0nxQAC",
      "address": {
        "street": "2480 Briarcliff Road NE",
        "city": "Atlanta",
        "country": "US",
        "state": "GA",
        "longState": "Georgia",
        "zip": "30329"
      },
      "name": "Atlanta GA - Briarcliff Road NE",
      "hours": {
        "regularHours": [
          {
            "days": "Monday – Sunday",
            "hours": "8am – 9pm",
            "openingTime": "12:00:00Z",
            "closingTime": "01:00:00Z",
            "daysOfWeek": [
              1,
              2,
              3,
              4,
              5,
              6,
              7
            ]
          }
        ],
        "holidayHours": [],
        "specialHours": []
      },
      "phone": "844.747.5435",
      "attributes": [],
      "coordinates": {
        "lat": 33.827103,
        "lon": -84.3319
      },
      "temporarilyClosed": false,
      "reopeningDate": ""
    },
    {
      "id": "US01445",
      "crmStoreID": "1445",
      "storeNumber": "0012L000014Q0oEQAS",
      "address": {
        "street": "1205 Johnson Ferry Rd",
        "city": "Marietta",
        "country": "US",
        "state": "GA",
        "longState": "Georgia",
        "zip": "30068"
      },
      "name": "East Cobb GA - Johnson Ferry Rd",
      "hours": {
        "regularHours": [
          {
            "days": "Monday – Sunday",
            "hours": "8am – 9pm",
            "openingTime": "12:00:00Z",
            "closingTime": "01:00:00Z",
            "daysOfWeek": [
              1,
              2,
              3,
              4,
              5,
              6,
              7
            ]
          }
        ],
        "holidayHours": [],
        "specialHours": []
      },
      "phone": "844.747.5435",
      "attributes": [],
      "coordinates": {
        "lat": 33.978203,
        "lon": -84.41758
      },
      "temporarilyClosed": false,
      "reopeningDate": ""
    },
    {
      "id": "US01446",
      "crmStoreID": "1446",
      "storeNumber": "0012L000014Q0o3QAC",
      "address": {
        "street": "6548 Little River Turnpike",
        "city": "Alexandria",
        "country": "US",
        "state": "VA",
        "longState": "Virginia",
        "zip": "22312"
      },
      "name": "Alexandria VA - Pinecrest Plaza",
      "hours": {
        "regularHours": [
          {
            "days": "Monday – Sunday",
            "hours": "8am – 10pm",
            "openingTime": "12:00:00Z",
            "closingTime": "02:00:00Z",
            "daysOfWeek": [
              1,
              2,
              3,
              4,
              5,
              6,
              7
            ]
          }
        ],
        "holidayHours": [],
        "specialHours": []
      },
      "phone": "844.747.5435",
      "attributes": [],
      "coordinates": {
        "lat": 38.823242,
        "lon": -77.16129
      },
      "temporarilyClosed": false,
      "reopeningDate": ""
    },
    {
      "id": "US01448",
      "crmStoreID": "1448",
      "storeNumber": "0012L000014Q0oHQAS",
      "address": {
        "street": "199 Kinderkamack Rd",
        "city": "Park Ridge",
        "country": "US",
        "state": "NJ",
        "longState": "New Jersey",
        "zip": "07656"
      },
      "name": "Park Ridge NJ - 199 Kinderkamack Rd",
      "hours": {
        "regularHours": [
          {
            "days": "Monday – Sunday",
            "hours": "8am – 9pm",
            "openingTime": "12:00:00Z",
            "closingTime": "01:00:00Z",
            "daysOfWeek": [
              1,
              2,
              3,
              4,
              5,
              6,
              7
            ]
          }
        ],
        "holidayHours": [],
        "specialHours": []
      },
      "phone": "844.747.5435",
      "attributes": [],
      "coordinates": {
        "lat": 41.03672,
        "lon": -74.030716
      },
      "temporarilyClosed": false,
      "reopeningDate": ""
    },
    {
      "id": "US01449",
      "crmStoreID": "1449",
      "storeNumber": "0012L000014Q0oOQAS",
      "address": {
        "street": "4100 Park Ave",
        "city": "Weehawken",
        "country": "US",
        "state": "NJ",
        "longState": "New Jersey",
        "zip": "07086"
      },
      "name": "Weehawken NJ - Park Ave",
      "hours": {
        "regularHours": [
          {
            "days": "Monday – Sunday",
            "hours": "8am – 10pm",
            "openingTime": "12:00:00Z",
            "closingTime": "02:00:00Z",
            "daysOfWeek": [
              1,
              2,
              3,
              4,
              5,
              6,
              7
            ]
          }
        ],
        "holidayHours": [],
        "specialHours": []
      },
      "phone": "844.747.5435",
      "attributes": [],
      "coordinates": {
        "lat": 40.773983,
        "lon": -74.020996
      },
      "temporarilyClosed": false,
      "reopeningDate": ""
    },
    {
      "id": "US01450",
      "crmStoreID": "1450",
      "storeNumber": "0012L00001AaeR2QAJ",
      "address": {
        "street": "10300 Little Patuxent Parkway",
        "city": "Columbia",
        "country": "US",
        "state": "MD",
        "longState": "Maryland",
        "zip": "21044"
      },
      "name": "Columbia MD - Columbia Mall",
      "hours": {
        "regularHours": [
          {
            "days": "Monday – Sunday",
            "hours": "8am – 9pm",
            "openingTime": "12:00:00Z",
            "closingTime": "01:00:00Z",
            "daysOfWeek": [
              1,
              2,
              3,
              4,
              5,
              6,
              7
            ]
          }
        ],
        "holidayHours": [],
        "specialHours": []
      },
      "phone": "844.747.5435",
      "attributes": [],
      "coordinates": {
        "lat": 39.2115,
        "lon": -76.86565
      },
      "temporarilyClosed": false,
      "reopeningDate": ""
    },
    {
      "id": "US01453",
      "crmStoreID": "1453",
      "storeNumber": "0012L00001AaeRSQAZ",
      "address": {
        "street": "1855 Memorial Dr SE",
        "city": "Atlanta",
        "country": "US",
        "state": "GA",
        "longState": "Georgia",
        "zip": "30317"
      },
      "name": "Atlanta GA - Memorial Dr SE",
      "hours": {
        "regularHours": [
          {
            "days": "Monday – Sunday",
            "hours": "8am – 9pm",
            "openingTime": "12:00:00Z",
            "closingTime": "01:00:00Z",
            "daysOfWeek": [
              1,
              2,
              3,
              4,
              5,
              6,
              7
            ]
          }
        ],
        "holidayHours": [],
        "specialHours": []
      },
      "phone": "844.747.5435",
      "attributes": [],
      "coordinates": {
        "lat": 33.747425,
        "lon": -84.328896
      },
      "temporarilyClosed": false,
      "reopeningDate": ""
    },
    {
      "id": "US01454",
      "crmStoreID": "1454",
      "storeNumber": "0018Y00002sGmMfQAK",
      "address": {
        "street": "191 E Hanover Ave",
        "city": "Morristown",
        "country": "US",
        "state": "NJ",
        "longState": "New Jersey",
        "zip": "07960"
      },
      "name": "Morristown NJ - E Hanover Ave",
      "hours": {
        "regularHours": [
          {
            "days": "Monday – Sunday",
            "hours": "8am – 9pm",
            "openingTime": "12:00:00Z",
            "closingTime": "01:00:00Z",
            "daysOfWeek": [
              1,
              2,
              3,
              4,
              5,
              6,
              7
            ]
          }
        ],
        "holidayHours": [],
        "specialHours": []
      },
      "phone": "844.747.5435",
      "attributes": [],
      "coordinates": {
        "lat": 40.818943,
        "lon": -74.47442
      },
      "temporarilyClosed": false,
      "reopeningDate": ""
    },
    {
      "id": "US01455",
      "crmStoreID": "1455",
      "storeNumber": "0012L00001K07bYQAR",
      "address": {
        "street": "8849 Dorchester Road",
        "city": "North Charleston",
        "country": "US",
        "state": "SC",
        "longState": "South Carolina",
        "zip": "29420"
      },
      "name": "North Charleston SC - Cedar Grove",
      "hours": {
        "regularHours": [
          {
            "days": "Monday – Sunday",
            "hours": "8am – 9pm",
            "openingTime": "12:00:00Z",
            "closingTime": "01:00:00Z",
            "daysOfWeek": [
              1,
              2,
              3,
              4,
              5,
              6,
              7
            ]
          }
        ],
        "holidayHours": [],
        "specialHours": []
      },
      "phone": "844.747.5435",
      "attributes": [],
      "coordinates": {
        "lat": 32.9223,
        "lon": -80.12079
      },
      "temporarilyClosed": false,
      "reopeningDate": ""
    },
    {
      "id": "US01459",
      "crmStoreID": "1459",
      "storeNumber": "0012L00001AaeRQQAZ",
      "address": {
        "street": "1504 Havenwood Road",
        "city": "Baltimore",
        "country": "US",
        "state": "MD",
        "longState": "Maryland",
        "zip": "21218"
      },
      "name": "Baltimore MD - Northwood Commons",
      "hours": {
        "regularHours": [
          {
            "days": "Monday – Sunday",
            "hours": "8am – 9pm",
            "openingTime": "12:00:00Z",
            "closingTime": "01:00:00Z",
            "daysOfWeek": [
              1,
              2,
              3,
              4,
              5,
              6,
              7
            ]
          }
        ],
        "holidayHours": [],
        "specialHours": []
      },
      "phone": "844.747.5435",
      "attributes": [],
      "coordinates": {
        "lat": 39.3412,
        "lon": -76.59097
      },
      "temporarilyClosed": false,
      "reopeningDate": ""
    },
    {
      "id": "US01460",
      "crmStoreID": "1460",
      "storeNumber": "0012L00001AaeRTQAZ",
      "address": {
        "street": "9001 White Spruce Way",
        "city": "Lorton",
        "country": "US",
        "state": "VA",
        "longState": "Virginia",
        "zip": "22079"
      },
      "name": "Lorton VA - Liberty Market",
      "hours": {
        "regularHours": [
          {
            "days": "Monday – Sunday",
            "hours": "8am – 9pm",
            "openingTime": "12:00:00Z",
            "closingTime": "01:00:00Z",
            "daysOfWeek": [
              1,
              2,
              3,
              4,
              5,
              6,
              7
            ]
          }
        ],
        "holidayHours": [],
        "specialHours": []
      },
      "phone": "844.747.5435",
      "attributes": [],
      "coordinates": {
        "lat": 38.707897,
        "lon": -77.228775
      },
      "temporarilyClosed": false,
      "reopeningDate": ""
    },
    {
      "id": "US01461",
      "crmStoreID": "1461",
      "storeNumber": "0012L000019QKFiQAO",
      "address": {
        "street": "15 E Padonia Road",
        "city": "Timonium",
        "country": "US",
        "state": "MD",
        "longState": "Maryland",
        "zip": "21093"
      },
      "name": "Timonium MD - Padonia Road",
      "hours": {
        "regularHours": [
          {
            "days": "Monday – Sunday",
            "hours": "8am – 9pm",
            "openingTime": "12:00:00Z",
            "closingTime": "01:00:00Z",
            "daysOfWeek": [
              1,
              2,
              3,
              4,
              5,
              6,
              7
            ]
          }
        ],
        "holidayHours": [],
        "specialHours": []
      },
      "phone": "844.747.5435",
      "attributes": [],
      "coordinates": {
        "lat": 39.43705,
        "lon": -76.61969
      },
      "temporarilyClosed": false,
      "reopeningDate": ""
    },
    {
      "id": "US01463",
      "crmStoreID": "1463",
      "storeNumber": "0012L00001AaeQyQAJ",
      "address": {
        "street": "3121 Fire Road",
        "city": "Egg Harbor Township",
        "country": "US",
        "state": "NJ",
        "longState": "New Jersey",
        "zip": "08234"
      },
      "name": "Egg Harbor Township NJ - Fire Rd",
      "hours": {
        "regularHours": [
          {
            "days": "Monday – Sunday",
            "hours": "8am – 9pm",
            "openingTime": "12:00:00Z",
            "closingTime": "01:00:00Z",
            "daysOfWeek": [
              1,
              2,
              3,
              4,
              5,
              6,
              7
            ]
          }
        ],
        "holidayHours": [],
        "specialHours": []
      },
      "phone": "844.747.5435",
      "attributes": [],
      "coordinates": {
        "lat": 39.39288,
        "lon": -74.5625
      },
      "temporarilyClosed": false,
      "reopeningDate": ""
    },
    {
      "id": "US01467",
      "crmStoreID": "1467",
      "storeNumber": "0012L00001AaeRIQAZ",
      "address": {
        "street": "63 Wanaque Avenue",
        "city": "Pompton Lakes",
        "country": "US",
        "state": "NJ",
        "longState": "New Jersey",
        "zip": "07442"
      },
      "name": "Pompton Lakes NJ - Wanaque Ave",
      "hours": {
        "regularHours": [
          {
            "days": "Monday – Sunday",
            "hours": "8am – 9pm",
            "openingTime": "12:00:00Z",
            "closingTime": "01:00:00Z",
            "daysOfWeek": [
              1,
              2,
              3,
              4,
              5,
              6,
              7
            ]
          }
        ],
        "holidayHours": [],
        "specialHours": []
      },
      "phone": "844.747.5435",
      "attributes": [],
      "coordinates": {
        "lat": 41.004536,
        "lon": -74.29174
      },
      "temporarilyClosed": false,
      "reopeningDate": ""
    },
    {
      "id": "US01469",
      "crmStoreID": "1469",
      "storeNumber": "0012L00001AaeR7QAJ",
      "address": {
        "street": "2901 Gallows Road",
        "city": "Falls Church",
        "country": "US",
        "state": "VA",
        "longState": "Virginia",
        "zip": "22042"
      },
      "name": "Falls Church VA - Merrifield",
      "hours": {
        "regularHours": [
          {
            "days": "Monday – Sunday",
            "hours": "8am – 10pm",
            "openingTime": "12:00:00Z",
            "closingTime": "02:00:00Z",
            "daysOfWeek": [
              1,
              2,
              3,
              4,
              5,
              6,
              7
            ]
          }
        ],
        "holidayHours": [],
        "specialHours": []
      },
      "phone": "844.747.5435",
      "attributes": [],
      "coordinates": {
        "lat": 38.87353,
        "lon": -77.22644
      },
      "temporarilyClosed": false,
      "reopeningDate": ""
    },
    {
      "id": "US01471",
      "crmStoreID": "1471",
      "storeNumber": "0012L00001AaeRWQAZ",
      "address": {
        "street": "11991 Reisterstown Road",
        "city": "Reisterstown",
        "country": "US",
        "state": "MD",
        "longState": "Maryland",
        "zip": "21136"
      },
      "name": "Reisterstown MD - Reisterstown Shopping Center",
      "hours": {
        "regularHours": [
          {
            "days": "Monday – Sunday",
            "hours": "9am – 9pm",
            "openingTime": "13:00:00Z",
            "closingTime": "01:00:00Z",
            "daysOfWeek": [
              1,
              2,
              3,
              4,
              5,
              6,
              7
            ]
          }
        ],
        "holidayHours": [],
        "specialHours": []
      },
      "phone": "844.747.5435",
      "attributes": [],
      "coordinates": {
        "lat": 39.449043,
        "lon": -76.81591
      },
      "temporarilyClosed": false,
      "reopeningDate": ""
    },
    {
      "id": "US01473",
      "crmStoreID": "1473",
      "storeNumber": "0012L00001AaeRLQAZ",
      "address": {
        "street": "2475 Jericho Turnpike",
        "city": "New Hyde Park",
        "country": "US",
        "state": "NY",
        "longState": "New York",
        "zip": "11040"
      },
      "name": "Garden City Park - Jericho Turnpike",
      "hours": {
        "regularHours": [
          {
            "days": "Monday – Sunday",
            "hours": "8am – 9pm",
            "openingTime": "12:00:00Z",
            "closingTime": "01:00:00Z",
            "daysOfWeek": [
              1,
              2,
              3,
              4,
              5,
              6,
              7
            ]
          }
        ],
        "holidayHours": [],
        "specialHours": []
      },
      "phone": "844.747.5435",
      "attributes": [],
      "coordinates": {
        "lat": 40.743626,
        "lon": -73.65743
      },
      "temporarilyClosed": false,
      "reopeningDate": ""
    },
    {
      "id": "US01477",
      "crmStoreID": "1477",
      "storeNumber": "0012L00001AaeRMQAZ",
      "address": {
        "street": "1945 Braselton Hwy",
        "city": "Buford",
        "country": "US",
        "state": "GA",
        "longState": "Georgia",
        "zip": "30519"
      },
      "name": "Buford GA - Braselton Hwy",
      "hours": {
        "regularHours": [
          {
            "days": "Monday – Sunday",
            "hours": "8am – 9pm",
            "openingTime": "12:00:00Z",
            "closingTime": "01:00:00Z",
            "daysOfWeek": [
              1,
              2,
              3,
              4,
              5,
              6,
              7
            ]
          }
        ],
        "holidayHours": [],
        "specialHours": []
      },
      "phone": "844.747.5435",
      "attributes": [],
      "coordinates": {
        "lat": 34.03599,
        "lon": -83.953575
      },
      "temporarilyClosed": false,
      "reopeningDate": ""
    },
    {
      "id": "US01478",
      "crmStoreID": "1478",
      "storeNumber": "0012L00001AaeR1QAJ",
      "address": {
        "street": "47100 Community Plaza #175",
        "city": "Sterling",
        "country": "US",
        "state": "VA",
        "longState": "Virginia",
        "zip": "20164"
      },
      "name": "Sterling VA - Leesburg Pike",
      "hours": {
        "regularHours": [
          {
            "days": "Monday – Sunday",
            "hours": "8am – 9pm",
            "openingTime": "12:00:00Z",
            "closingTime": "01:00:00Z",
            "daysOfWeek": [
              1,
              2,
              3,
              4,
              5,
              6,
              7
            ]
          }
        ],
        "holidayHours": [],
        "specialHours": []
      },
      "phone": "844.747.5435",
      "attributes": [],
      "coordinates": {
        "lat": 39.01583,
        "lon": -77.37586
      },
      "temporarilyClosed": false,
      "reopeningDate": ""
    },
    {
      "id": "US01482",
      "crmStoreID": "1482",
      "storeNumber": "0012L00001AaeRHQAZ",
      "address": {
        "street": "414 Main Street",
        "city": "Belleville",
        "country": "US",
        "state": "NJ",
        "longState": "New Jersey",
        "zip": "07109"
      },
      "name": "Belleville NJ - Main St",
      "hours": {
        "regularHours": [
          {
            "days": "Monday – Sunday",
            "hours": "8am – 9pm",
            "openingTime": "12:00:00Z",
            "closingTime": "01:00:00Z",
            "daysOfWeek": [
              1,
              2,
              3,
              4,
              5,
              6,
              7
            ]
          }
        ],
        "holidayHours": [],
        "specialHours": []
      },
      "phone": "844.747.5435",
      "attributes": [],
      "coordinates": {
        "lat": 40.802097,
        "lon": -74.14028
      },
      "temporarilyClosed": false,
      "reopeningDate": ""
    },
    {
      "id": "US01484",
      "crmStoreID": "1484",
      "storeNumber": "0012L00001AaeQxQAJ",
      "address": {
        "street": "104 Bartlett Avenue Suite 100",
        "city": "Exton",
        "country": "US",
        "state": "PA",
        "longState": "Pennsylvania",
        "zip": "19341"
      },
      "name": "Exton PA  - Bartlett Ave",
      "hours": {
        "regularHours": [
          {
            "days": "Monday – Sunday",
            "hours": "8am – 9pm",
            "openingTime": "12:00:00Z",
            "closingTime": "01:00:00Z",
            "daysOfWeek": [
              1,
              2,
              3,
              4,
              5,
              6,
              7
            ]
          }
        ],
        "holidayHours": [],
        "specialHours": []
      },
      "phone": "844.747.5435",
      "attributes": [],
      "coordinates": {
        "lat": 40.021454,
        "lon": -75.62656
      },
      "temporarilyClosed": false,
      "reopeningDate": ""
    },
    {
      "id": "US01488",
      "crmStoreID": "1488",
      "storeNumber": "0012L00001AaeRAQAZ",
      "address": {
        "street": "1003 W Patrick Street",
        "city": "Frederick",
        "country": "US",
        "state": "MD",
        "longState": "Maryland",
        "zip": "21702"
      },
      "name": "Frederick MD - W Patrick St",
      "hours": {
        "regularHours": [
          {
            "days": "Monday – Sunday",
            "hours": "8am – 9pm",
            "openingTime": "12:00:00Z",
            "closingTime": "01:00:00Z",
            "daysOfWeek": [
              1,
              2,
              3,
              4,
              5,
              6,
              7
            ]
          }
        ],
        "holidayHours": [],
        "specialHours": []
      },
      "phone": "844.747.5435",
      "attributes": [],
      "coordinates": {
        "lat": 39.41844,
        "lon": -77.44099
      },
      "temporarilyClosed": false,
      "reopeningDate": ""
    },
    {
      "id": "US01497",
      "crmStoreID": "1497",
      "storeNumber": "0012L00001AaeRPQAZ",
      "address": {
        "street": "11200 Carmel Commons Blvd",
        "city": "Charlotte",
        "country": "US",
        "state": "NC",
        "longState": "North Carolina",
        "zip": "28226"
      },
      "name": "Charlotte NC - Carmel Commons",
      "hours": {
        "regularHours": [
          {
            "days": "Monday – Sunday",
            "hours": "8am – 9pm",
            "openingTime": "12:00:00Z",
            "closingTime": "01:00:00Z",
            "daysOfWeek": [
              1,
              2,
              3,
              4,
              5,
              6,
              7
            ]
          }
        ],
        "holidayHours": [],
        "specialHours": []
      },
      "phone": "844.747.5435",
      "attributes": [],
      "coordinates": {
        "lat": 35.083187,
        "lon": -80.852585
      },
      "temporarilyClosed": false,
      "reopeningDate": ""
    },
    {
      "id": "US01499",
      "crmStoreID": "1499",
      "storeNumber": "0012L00001AaeR6QAJ",
      "address": {
        "street": "1151 Old Country Road",
        "city": "Riverhead",
        "country": "US",
        "state": "NY",
        "longState": "New York",
        "zip": "11901"
      },
      "name": "Riverhead NY - Old Country Rd",
      "hours": {
        "regularHours": [
          {
            "days": "Monday – Sunday",
            "hours": "8am – 9pm",
            "openingTime": "12:00:00Z",
            "closingTime": "01:00:00Z",
            "daysOfWeek": [
              1,
              2,
              3,
              4,
              5,
              6,
              7
            ]
          }
        ],
        "holidayHours": [],
        "specialHours": []
      },
      "phone": "844.747.5435",
      "attributes": [],
      "coordinates": {
        "lat": 40.933548,
        "lon": -72.673096
      },
      "temporarilyClosed": false,
      "reopeningDate": ""
    },
    {
      "id": "US01503",
      "crmStoreID": "1503",
      "storeNumber": "0012L00001AaeRUQAZ",
      "address": {
        "street": "450 Commack Road",
        "city": "Deer Park",
        "country": "US",
        "state": "NY",
        "longState": "New York",
        "zip": "11729"
      },
      "name": "Deer Park NY - Commack Rd",
      "hours": {
        "regularHours": [
          {
            "days": "Monday – Sunday",
            "hours": "8am – 9pm",
            "openingTime": "12:00:00Z",
            "closingTime": "01:00:00Z",
            "daysOfWeek": [
              1,
              2,
              3,
              4,
              5,
              6,
              7
            ]
          }
        ],
        "holidayHours": [],
        "specialHours": []
      },
      "phone": "844.747.5435",
      "attributes": [],
      "coordinates": {
        "lat": 40.76288,
        "lon": -73.3131
      },
      "temporarilyClosed": false,
      "reopeningDate": ""
    },
    {
      "id": "US01506",
      "crmStoreID": "1506",
      "storeNumber": "0012L00001K07bZQAR",
      "address": {
        "street": "713 E. Baltimore Avenue",
        "city": "Clifton Heights",
        "country": "US",
        "state": "PA",
        "longState": "Pennsylvania",
        "zip": "19018"
      },
      "name": "Clifton Heights PA - E Baltimore Ave",
      "hours": {
        "regularHours": [
          {
            "days": "Monday – Sunday",
            "hours": "8am – 9pm",
            "openingTime": "12:00:00Z",
            "closingTime": "01:00:00Z",
            "daysOfWeek": [
              1,
              2,
              3,
              4,
              5,
              6,
              7
            ]
          }
        ],
        "holidayHours": [],
        "specialHours": []
      },
      "phone": "844.747.5435",
      "attributes": [],
      "coordinates": {
        "lat": 39.92676,
        "lon": -75.30444
      },
      "temporarilyClosed": false,
      "reopeningDate": ""
    },
    {
      "id": "US01512",
      "crmStoreID": "1512",
      "storeNumber": "0018Y00002sGmMeQAK",
      "address": {
        "street": "3005 Martinsville Rd",
        "city": "Greensboro",
        "country": "US",
        "state": "NC",
        "longState": "North Carolina",
        "zip": "27455"
      },
      "name": "Greensboro NC - Pisgah Church Rd",
      "hours": {
        "regularHours": [
          {
            "days": "Monday – Sunday",
            "hours": "8am – 9pm",
            "openingTime": "12:00:00Z",
            "closingTime": "01:00:00Z",
            "daysOfWeek": [
              1,
              2,
              3,
              4,
              5,
              6,
              7
            ]
          }
        ],
        "holidayHours": [],
        "specialHours": []
      },
      "phone": "844.747.5435",
      "attributes": [],
      "coordinates": {
        "lat": 36.11707,
        "lon": -79.82959
      },
      "temporarilyClosed": false,
      "reopeningDate": ""
    },
    {
      "id": "US01523",
      "crmStoreID": "1523",
      "storeNumber": "0012L00001K07bXQAR",
      "address": {
        "street": "1330 Chain Bridge Road",
        "city": "McLean",
        "country": "US",
        "state": "VA",
        "longState": "Virginia",
        "zip": "22101"
      },
      "name": "McLean VA - Chain Bridge Rd",
      "hours": {
        "regularHours": [
          {
            "days": "Monday – Sunday",
            "hours": "8am – 9pm",
            "openingTime": "12:00:00Z",
            "closingTime": "01:00:00Z",
            "daysOfWeek": [
              1,
              2,
              3,
              4,
              5,
              6,
              7
            ]
          }
        ],
        "holidayHours": [],
        "specialHours": []
      },
      "phone": "844.747.5435",
      "attributes": [],
      "coordinates": {
        "lat": 38.93966,
        "lon": -77.17579
      },
      "temporarilyClosed": false,
      "reopeningDate": ""
    },
    {
      "id": "US01527",
      "crmStoreID": "1527",
      "storeNumber": "0012L00001K07bdQAB",
      "address": {
        "street": "599 W Mt. Pleasant Avenue",
        "city": "Livingston",
        "country": "US",
        "state": "NJ",
        "longState": "New Jersey",
        "zip": "07039"
      },
      "name": "Livingston NJ - W Mt Pleasant Ave",
      "hours": {
        "regularHours": [
          {
            "days": "Monday – Sunday",
            "hours": "8am – 9pm",
            "openingTime": "12:00:00Z",
            "closingTime": "01:00:00Z",
            "daysOfWeek": [
              1,
              2,
              3,
              4,
              5,
              6,
              7
            ]
          }
        ],
        "holidayHours": [],
        "specialHours": []
      },
      "phone": "844.747.5435",
      "attributes": [],
      "coordinates": {
        "lat": 40.79799,
        "lon": -74.354065
      },
      "temporarilyClosed": false,
      "reopeningDate": ""
    },
    {
      "id": "US01530",
      "crmStoreID": "1530",
      "storeNumber": "0012L00001K07beQAB",
      "address": {
        "street": "2694 Timber Drive",
        "city": "Garner",
        "country": "US",
        "state": "NC",
        "longState": "North Carolina",
        "zip": "27529"
      },
      "name": "Garner NC - Timber Dr",
      "hours": {
        "regularHours": [
          {
            "days": "Monday – Sunday",
            "hours": "8am – 9pm",
            "openingTime": "12:00:00Z",
            "closingTime": "01:00:00Z",
            "daysOfWeek": [
              1,
              2,
              3,
              4,
              5,
              6,
              7
            ]
          }
        ],
        "holidayHours": [],
        "specialHours": []
      },
      "phone": "844.747.5435",
      "attributes": [],
      "coordinates": {
        "lat": 35.707546,
        "lon": -78.6416
      },
      "temporarilyClosed": false,
      "reopeningDate": ""
    },
    {
      "id": "US01531",
      "crmStoreID": "1531",
      "storeNumber": "0012L00001K07baQAB",
      "address": {
        "street": "210 Jericho Turnpike",
        "city": "Commack",
        "country": "US",
        "state": "NY",
        "longState": "New York",
        "zip": "11725"
      },
      "name": "Commack NY - Jericho Tpke",
      "hours": {
        "regularHours": [
          {
            "days": "Monday – Sunday",
            "hours": "8am – 9pm",
            "openingTime": "12:00:00Z",
            "closingTime": "01:00:00Z",
            "daysOfWeek": [
              1,
              2,
              3,
              4,
              5,
              6,
              7
            ]
          }
        ],
        "holidayHours": [],
        "specialHours": []
      },
      "phone": "844.747.5435",
      "attributes": [],
      "coordinates": {
        "lat": 40.846397,
        "lon": -73.26577
      },
      "temporarilyClosed": false,
      "reopeningDate": ""
    },
    {
      "id": "US01542",
      "crmStoreID": "1542",
      "storeNumber": "0018Y00002sGmMdQAK",
      "address": {
        "street": "3100 14th St. NW, #116",
        "city": "Washington",
        "country": "US",
        "state": "DC",
        "longState": "District Of Columbia",
        "zip": "20010"
      },
      "name": "Washington DC - 14th St NW",
      "hours": {
        "regularHours": [
          {
            "days": "Monday – Sunday",
            "hours": "8am – 10pm",
            "openingTime": "12:00:00Z",
            "closingTime": "02:00:00Z",
            "daysOfWeek": [
              1,
              2,
              3,
              4,
              5,
              6,
              7
            ]
          }
        ],
        "holidayHours": [],
        "specialHours": []
      },
      "phone": "844.747.5435",
      "attributes": [],
      "coordinates": {
        "lat": 38.93012,
        "lon": -77.033005
      },
      "temporarilyClosed": false,
      "reopeningDate": ""
    },
    {
      "id": "US01545",
      "crmStoreID": "1545",
      "storeNumber": "0018Y00003NUYQ7QAP",
      "address": {
        "street": "91 Trotters Way",
        "city": "Freehold",
        "country": "US",
        "state": "NJ",
        "longState": "New Jersey",
        "zip": "07728"
      },
      "name": "Freehold NJ - Trotters Way",
      "hours": {
        "regularHours": [
          {
            "days": "Monday – Sunday",
            "hours": "8am – 9pm",
            "openingTime": "12:00:00Z",
            "closingTime": "01:00:00Z",
            "daysOfWeek": [
              1,
              2,
              3,
              4,
              5,
              6,
              7
            ]
          }
        ],
        "holidayHours": [],
        "specialHours": []
      },
      "phone": "844.747.5435",
      "attributes": [],
      "coordinates": {
        "lat": 40.251247,
        "lon": -74.29357
      },
      "temporarilyClosed": false,
      "reopeningDate": ""
    },
    {
      "id": "US01546",
      "crmStoreID": "1546",
      "storeNumber": "0018Y00002sGmMgQAK",
      "address": {
        "street": "8387 Leesburg Pike, C",
        "city": "Vienna",
        "country": "US",
        "state": "VA",
        "longState": "Virginia",
        "zip": "22182"
      },
      "name": "Vienna VA - Tysons",
      "hours": {
        "regularHours": [
          {
            "days": "Monday – Sunday",
            "hours": "8am – 9pm",
            "openingTime": "12:00:00Z",
            "closingTime": "01:00:00Z",
            "daysOfWeek": [
              1,
              2,
              3,
              4,
              5,
              6,
              7
            ]
          }
        ],
        "holidayHours": [],
        "specialHours": []
      },
      "phone": "844.747.5435",
      "attributes": [],
      "coordinates": {
        "lat": 38.921886,
        "lon": -77.236496
      },
      "temporarilyClosed": false,
      "reopeningDate": ""
    },
    {
      "id": "US01554",
      "crmStoreID": "1554",
      "storeNumber": "0018Y000038VZUPQA4",
      "address": {
        "street": "5935 Centreville Crest Lane",
        "city": "Centreville",
        "country": "US",
        "state": "VA",
        "longState": "Virginia",
        "zip": "20121"
      },
      "name": "Centreville VA - Lee Hwy",
      "hours": {
        "regularHours": [
          {
            "days": "Monday – Sunday",
            "hours": "9am – 9pm",
            "openingTime": "13:00:00Z",
            "closingTime": "01:00:00Z",
            "daysOfWeek": [
              1,
              2,
              3,
              4,
              5,
              6,
              7
            ]
          }
        ],
        "holidayHours": [],
        "specialHours": []
      },
      "phone": "844.747.5435",
      "attributes": [],
      "coordinates": {
        "lat": 38.83712,
        "lon": -77.434975
      },
      "temporarilyClosed": false,
      "reopeningDate": ""
    },
    {
      "id": "US01555",
      "crmStoreID": "1555",
      "storeNumber": "0018Y000038VZUQQA4",
      "address": {
        "street": "7625 Old Georgetown Road",
        "city": "Bethesda",
        "country": "US",
        "state": "MD",
        "longState": "Maryland",
        "zip": "20814"
      },
      "name": "Bethesda MD - Old Georgetown Rd",
      "hours": {
        "regularHours": [
          {
            "days": "Monday – Sunday",
            "hours": "8am – 9pm",
            "openingTime": "12:00:00Z",
            "closingTime": "01:00:00Z",
            "daysOfWeek": [
              1,
              2,
              3,
              4,
              5,
              6,
              7
            ]
          }
        ],
        "holidayHours": [],
        "specialHours": []
      },
      "phone": "844.747.5435",
      "attributes": [],
      "coordinates": {
        "lat": 38.986153,
        "lon": -77.096405
      },
      "temporarilyClosed": false,
      "reopeningDate": ""
    },
    {
      "id": "US01556",
      "crmStoreID": "1556",
      "storeNumber": "0018Y00002sGmMiQAK",
      "address": {
        "street": "3104 Queens Chapel Road",
        "city": "Hyattsville",
        "country": "US",
        "state": "MD",
        "longState": "Maryland",
        "zip": "20782"
      },
      "name": "Hyattsville MD - Queens Chapel Rd",
      "hours": {
        "regularHours": [
          {
            "days": "Monday – Sunday",
            "hours": "8am – 9pm",
            "openingTime": "12:00:00Z",
            "closingTime": "01:00:00Z",
            "daysOfWeek": [
              1,
              2,
              3,
              4,
              5,
              6,
              7
            ]
          }
        ],
        "holidayHours": [],
        "specialHours": []
      },
      "phone": "844.747.5435",
      "attributes": [],
      "coordinates": {
        "lat": 38.950314,
        "lon": -76.96808
      },
      "temporarilyClosed": false,
      "reopeningDate": ""
    },
    {
      "id": "US01557",
      "crmStoreID": "1557",
      "storeNumber": "0018Y000038VZUNQA4",
      "address": {
        "street": "4000 Wisconsin Avenue NW, Suite 10",
        "city": "Washington",
        "country": "US",
        "state": "DC",
        "longState": "District Of Columbia",
        "zip": "20016"
      },
      "name": "Washington DC - Cathedral Heights",
      "hours": {
        "regularHours": [
          {
            "days": "Monday – Sunday",
            "hours": "8am – 9pm",
            "openingTime": "12:00:00Z",
            "closingTime": "01:00:00Z",
            "daysOfWeek": [
              1,
              2,
              3,
              4,
              5,
              6,
              7
            ]
          }
        ],
        "holidayHours": [],
        "specialHours": []
      },
      "phone": "844.747.5435",
      "attributes": [],
      "coordinates": {
        "lat": 38.94159,
        "lon": -77.07717
      },
      "temporarilyClosed": false,
      "reopeningDate": ""
    },
    {
      "id": "US01559",
      "crmStoreID": "1559",
      "storeNumber": "0018Y00002sGmMhQAK",
      "address": {
        "street": "88-01 Queens Blvd",
        "city": "Elmhurst",
        "country": "US",
        "state": "NY",
        "longState": "New York",
        "zip": "11373-4449"
      },
      "name": "Elmhurst NY - Queens Place Mall",
      "hours": {
        "regularHours": [
          {
            "days": "Monday – Sunday",
            "hours": "8am – 10pm",
            "openingTime": "12:00:00Z",
            "closingTime": "02:00:00Z",
            "daysOfWeek": [
              1,
              2,
              3,
              4,
              5,
              6,
              7
            ]
          }
        ],
        "holidayHours": [],
        "specialHours": []
      },
      "phone": "844.747.5435",
      "attributes": [],
      "coordinates": {
        "lat": 40.735733,
        "lon": -73.87426
      },
      "temporarilyClosed": false,
      "reopeningDate": ""
    },
    {
      "id": "US01564",
      "crmStoreID": "1564",
      "storeNumber": "0018Y000038VZURQA4",
      "address": {
        "street": "840 Pelham Pkwy",
        "city": "Pelham",
        "country": "US",
        "state": "NY",
        "longState": "New York",
        "zip": "10803"
      },
      "name": "Pelham Manor NY - Pelham",
      "hours": {
        "regularHours": [
          {
            "days": "Monday – Sunday",
            "hours": "8am – 9pm",
            "openingTime": "12:00:00Z",
            "closingTime": "01:00:00Z",
            "daysOfWeek": [
              1,
              2,
              3,
              4,
              5,
              6,
              7
            ]
          }
        ],
        "holidayHours": [],
        "specialHours": []
      },
      "phone": "844.747.5435",
      "attributes": [],
      "coordinates": {
        "lat": 40.892883,
        "lon": -73.81824
      },
      "temporarilyClosed": false,
      "reopeningDate": ""
    },
    {
      "id": "US01566",
      "crmStoreID": "1566",
      "storeNumber": "0018Y000038VZULQA4",
      "address": {
        "street": "5125 Jonestown Rd",
        "city": "Harrisburg",
        "country": "US",
        "state": "PA",
        "longState": "Pennsylvania",
        "zip": "17112-2983"
      },
      "name": "Harrisburg PA - Paxton Towne Centre",
      "hours": {
        "regularHours": [
          {
            "days": "Monday – Sunday",
            "hours": "8am – 9pm",
            "openingTime": "12:00:00Z",
            "closingTime": "01:00:00Z",
            "daysOfWeek": [
              1,
              2,
              3,
              4,
              5,
              6,
              7
            ]
          }
        ],
        "holidayHours": [],
        "specialHours": []
      },
      "phone": "844.747.5435",
      "attributes": [],
      "coordinates": {
        "lat": 40.3086,
        "lon": -76.79599
      },
      "temporarilyClosed": false,
      "reopeningDate": ""
    },
    {
      "id": "US01571",
      "crmStoreID": "1571",
      "storeNumber": "0018Y000038VZUTQA4",
      "address": {
        "street": "651 RT-17",
        "city": "Paramus",
        "country": "US",
        "state": "NJ",
        "longState": "New Jersey",
        "zip": "07652-3110"
      },
      "name": "Paramus NJ - Route 17",
      "hours": {
        "regularHours": [
          {
            "days": "Monday – Sunday",
            "hours": "8am – 9pm",
            "openingTime": "12:00:00Z",
            "closingTime": "01:00:00Z",
            "daysOfWeek": [
              1,
              2,
              3,
              4,
              5,
              6,
              7
            ]
          }
        ],
        "holidayHours": [],
        "specialHours": []
      },
      "phone": "844.747.5435",
      "attributes": [],
      "coordinates": {
        "lat": 40.944996,
        "lon": -74.06896
      },
      "temporarilyClosed": false,
      "reopeningDate": ""
    },
    {
      "id": "US01572",
      "crmStoreID": "1572",
      "storeNumber": "0018Y000038VZUMQA4",
      "address": {
        "street": "187-04 Horace Harding Expy",
        "city": "Fresh Meadows",
        "country": "US",
        "state": "NY",
        "longState": "New York",
        "zip": "11365"
      },
      "name": "Queens NY - Fresh Meadows",
      "hours": {
        "regularHours": [
          {
            "days": "Monday – Sunday",
            "hours": "8am – 10pm",
            "openingTime": "12:00:00Z",
            "closingTime": "02:00:00Z",
            "daysOfWeek": [
              1,
              2,
              3,
              4,
              5,
              6,
              7
            ]
          }
        ],
        "holidayHours": [],
        "specialHours": []
      },
      "phone": "844.747.5435",
      "attributes": [],
      "coordinates": {
        "lat": 40.74027,
        "lon": -73.78736
      },
      "temporarilyClosed": false,
      "reopeningDate": ""
    },
    {
      "id": "US01574",
      "crmStoreID": "1574",
      "storeNumber": "0018Y000038VZUSQA4",
      "address": {
        "street": "700 Exterior St",
        "city": "Bronx",
        "country": "US",
        "state": "NY",
        "longState": "New York",
        "zip": "10451-2042"
      },
      "name": "Bronx NY - Bronx Terminal Market",
      "hours": {
        "regularHours": [
          {
            "days": "Monday – Sunday",
            "hours": "8am – 10pm",
            "openingTime": "12:00:00Z",
            "closingTime": "02:00:00Z",
            "daysOfWeek": [
              1,
              2,
              3,
              4,
              5,
              6,
              7
            ]
          }
        ],
        "holidayHours": [],
        "specialHours": []
      },
      "phone": "844.747.5435",
      "attributes": [],
      "coordinates": {
        "lat": 40.818172,
        "lon": -73.930664
      },
      "temporarilyClosed": false,
      "reopeningDate": ""
    },
    {
      "id": "US01576",
      "crmStoreID": "1576",
      "storeNumber": "0018Y000038VZUOQA4",
      "address": {
        "street": "259-01 Union Turnpike",
        "city": "Glen Oaks",
        "country": "US",
        "state": "NY",
        "longState": "New York",
        "zip": "11004"
      },
      "name": "Glen Oaks NY - Glen Oaks",
      "hours": {
        "regularHours": [
          {
            "days": "Monday – Sunday",
            "hours": "8am – 10pm",
            "openingTime": "12:00:00Z",
            "closingTime": "02:00:00Z",
            "daysOfWeek": [
              1,
              2,
              3,
              4,
              5,
              6,
              7
            ]
          }
        ],
        "holidayHours": [],
        "specialHours": []
      },
      "phone": "844.747.5435",
      "attributes": [],
      "coordinates": {
        "lat": 40.74542,
        "lon": -73.71546
      },
      "temporarilyClosed": false,
      "reopeningDate": ""
    },
    {
      "id": "US01579",
      "crmStoreID": "1579",
      "storeNumber": "0018Y00003NUYhbQAH",
      "address": {
        "street": "490 Fulton St, Second Floor",
        "city": "Brooklyn",
        "country": "US",
        "state": "NY",
        "longState": "New York",
        "zip": "11201"
      },
      "name": "Brooklyn NY - Downtown Brooklyn",
      "hours": {
        "regularHours": [
          {
            "days": "Monday – Sunday",
            "hours": "8am – 9pm",
            "openingTime": "12:00:00Z",
            "closingTime": "01:00:00Z",
            "daysOfWeek": [
              1,
              2,
              3,
              4,
              5,
              6,
              7
            ]
          }
        ],
        "holidayHours": [],
        "specialHours": []
      },
      "phone": "844.747.5435",
      "attributes": [],
      "coordinates": {
        "lat": 40.689655,
        "lon": -73.98319
      },
      "temporarilyClosed": false,
      "reopeningDate": ""
    },
    {
      "id": "US01580",
      "crmStoreID": "1580",
      "storeNumber": "0018Y00003KmkfvQAB",
      "address": {
        "street": "459 Gateway Drive",
        "city": "Brooklyn",
        "country": "US",
        "state": "NY",
        "longState": "New York",
        "zip": "11239"
      },
      "name": "Brooklyn NY ‐ Gateway Center",
      "hours": {
        "regularHours": [
          {
            "days": "Monday – Sunday",
            "hours": "8am – 9pm",
            "openingTime": "12:00:00Z",
            "closingTime": "01:00:00Z",
            "daysOfWeek": [
              1,
              2,
              3,
              4,
              5,
              6,
              7
            ]
          }
        ],
        "holidayHours": [],
        "specialHours": []
      },
      "phone": "844.747.5435",
      "attributes": [],
      "coordinates": {
        "lat": 40.65258,
        "lon": -73.87096
      },
      "temporarilyClosed": false,
      "reopeningDate": ""
    },
    {
      "id": "US01581",
      "crmStoreID": "1581",
      "storeNumber": "0018Y00003NUYhdQAH",
      "address": {
        "street": "80 River St",
        "city": "Hackensack",
        "country": "US",
        "state": "NJ",
        "longState": "New Jersey",
        "zip": "07601"
      },
      "name": "Hackensack NJ -  Print House",
      "hours": {
        "regularHours": [
          {
            "days": "Monday – Sunday",
            "hours": "8am – 9pm",
            "openingTime": "12:00:00Z",
            "closingTime": "01:00:00Z",
            "daysOfWeek": [
              1,
              2,
              3,
              4,
              5,
              6,
              7
            ]
          }
        ],
        "holidayHours": [],
        "specialHours": []
      },
      "phone": "844.747.5435",
      "attributes": [],
      "coordinates": {
        "lat": 40.882805,
        "lon": -74.04133
      },
      "temporarilyClosed": false,
      "reopeningDate": ""
    },
    {
      "id": "US01590",
      "crmStoreID": "1590",
      "storeNumber": "0018Y00003NUYhgQAH",
      "address": {
        "street": "408 Grand St",
        "city": "New York",
        "country": "US",
        "state": "NY",
        "longState": "New York",
        "zip": "10002"
      },
      "name": "New York NY - Lower East Side",
      "hours": {
        "regularHours": [
          {
            "days": "Monday – Sunday",
            "hours": "8am – 9pm",
            "openingTime": "12:00:00Z",
            "closingTime": "01:00:00Z",
            "daysOfWeek": [
              1,
              2,
              3,
              4,
              5,
              6,
              7
            ]
          }
        ],
        "holidayHours": [],
        "specialHours": []
      },
      "phone": "844.747.5435",
      "attributes": [],
      "coordinates": {
        "lat": 40.715992,
        "lon": -73.986336
      },
      "temporarilyClosed": false,
      "reopeningDate": ""
    },
    {
      "id": "US03500",
      "crmStoreID": "3500",
      "storeNumber": "0012L00000y4zheQAA",
      "address": {
        "street": "3500 S. Clark St.",
        "city": "Arlington",
        "country": "US",
        "state": "VA",
        "longState": "Virginia",
        "zip": "22202"
      },
      "name": "Arlington VA - S. Clark St. | EXPRESS STORE",
      "hours": {
        "regularHours": [
          {
            "days": "Monday – Friday",
            "hours": "7am – 8pm",
            "openingTime": "11:00:00Z",
            "closingTime": "00:00:00Z",
            "daysOfWeek": [
              1,
              2,
              3,
              4,
              5
            ]
          },
          {
            "days": "Saturday – Sunday",
            "hours": "7am – 7pm",
            "openingTime": "11:00:00Z",
            "closingTime": "23:00:00Z",
            "daysOfWeek": [
              6,
              7
            ]
          }
        ],
        "holidayHours": [],
        "specialHours": []
      },
      "phone": "844.747.5435",
      "attributes": [],
      "coordinates": {
        "lat": 38.8438,
        "lon": -77.0522
      },
      "temporarilyClosed": false,
      "reopeningDate": ""
    },
    {
      "id": "US08001",
      "crmStoreID": "8001",
      "storeNumber": "0012L000014Q0ohQAC",
      "address": {
        "street": "155 Islip Avenue",
        "city": "Islip",
        "country": "US",
        "state": "NY",
        "longState": "New York",
        "zip": "11751"
      },
      "name": "Islip NY - Islip Ave",
      "hours": {
        "regularHours": [
          {
            "days": "Monday – Sunday",
            "hours": "8am – 9pm",
            "openingTime": "12:00:00Z",
            "closingTime": "01:00:00Z",
            "daysOfWeek": [
              1,
              2,
              3,
              4,
              5,
              6,
              7
            ]
          }
        ],
        "holidayHours": [],
        "specialHours": []
      },
      "phone": "844.747.5435",
      "attributes": [],
      "coordinates": {
        "lat": 40.735764,
        "lon": -73.20765
      },
      "temporarilyClosed": false,
      "reopeningDate": ""
    },
    {
      "id": "US08002",
      "crmStoreID": "8002",
      "storeNumber": "0012L00001AaeR0QAJ",
      "address": {
        "street": "492 Atlantic Avenue",
        "city": "East Rockaway",
        "country": "US",
        "state": "NY",
        "longState": "New York",
        "zip": "11518"
      },
      "name": "East Rockaway NY - Atlantic Ave",
      "hours": {
        "regularHours": [
          {
            "days": "Monday – Sunday",
            "hours": "8am – 9pm",
            "openingTime": "12:00:00Z",
            "closingTime": "01:00:00Z",
            "daysOfWeek": [
              1,
              2,
              3,
              4,
              5,
              6,
              7
            ]
          }
        ],
        "holidayHours": [],
        "specialHours": []
      },
      "phone": "844.747.5435",
      "attributes": [],
      "coordinates": {
        "lat": 40.64199,
        "lon": -73.66544
      },
      "temporarilyClosed": false,
      "reopeningDate": ""
    },
    {
      "id": "US08003",
      "crmStoreID": "8003",
      "storeNumber": "0012L000010PNNPQA4",
      "address": {
        "street": "711 E Jericho Turnpike",
        "city": "Huntington Station",
        "country": "US",
        "state": "NY",
        "longState": "New York",
        "zip": "11746"
      },
      "name": "Huntington Station NY - E Jericho Turnpike",
      "hours": {
        "regularHours": [
          {
            "days": "Monday – Sunday",
            "hours": "8am – 9pm",
            "openingTime": "12:00:00Z",
            "closingTime": "01:00:00Z",
            "daysOfWeek": [
              1,
              2,
              3,
              4,
              5,
              6,
              7
            ]
          }
        ],
        "holidayHours": [],
        "specialHours": []
      },
      "phone": "844.747.5435",
      "attributes": [],
      "coordinates": {
        "lat": 40.83463,
        "lon": -73.38376
      },
      "temporarilyClosed": false,
      "reopeningDate": ""
    },
    {
      "id": "US08004",
      "crmStoreID": "8004",
      "storeNumber": "0012L00001AaeQzQAJ",
      "address": {
        "street": "271 Jericho Turnpike",
        "city": "Syosset",
        "country": "US",
        "state": "NY",
        "longState": "New York",
        "zip": "11791"
      },
      "name": "Syosset NY - Jericho Tpke",
      "hours": {
        "regularHours": [
          {
            "days": "Monday – Sunday",
            "hours": "8am – 9pm",
            "openingTime": "12:00:00Z",
            "closingTime": "01:00:00Z",
            "daysOfWeek": [
              1,
              2,
              3,
              4,
              5,
              6,
              7
            ]
          }
        ],
        "holidayHours": [],
        "specialHours": []
      },
      "phone": "844.747.5435",
      "attributes": [],
      "coordinates": {
        "lat": 40.81148,
        "lon": -73.50517
      },
      "temporarilyClosed": false,
      "reopeningDate": ""
    },
    {
      "id": "US08006",
      "crmStoreID": "8006",
      "storeNumber": "0012L000014Q0ojQAC",
      "address": {
        "street": "1686 Merrick Road",
        "city": "Merrick",
        "country": "US",
        "state": "NY",
        "longState": "New York",
        "zip": "11566"
      },
      "name": "Merrick NY - 1686 Merrick Road",
      "hours": {
        "regularHours": [
          {
            "days": "Monday – Sunday",
            "hours": "8am – 9pm",
            "openingTime": "12:00:00Z",
            "closingTime": "01:00:00Z",
            "daysOfWeek": [
              1,
              2,
              3,
              4,
              5,
              6,
              7
            ]
          }
        ],
        "holidayHours": [],
        "specialHours": []
      },
      "phone": "844.747.5435",
      "attributes": [],
      "coordinates": {
        "lat": 40.65362,
        "lon": -73.55979
      },
      "temporarilyClosed": false,
      "reopeningDate": ""
    },
    {
      "id": "US08007",
      "crmStoreID": "8007",
      "storeNumber": "0012L000010PNNQQA4",
      "address": {
        "street": "725 Sunrise Hwy",
        "city": "West Babylon",
        "country": "US",
        "state": "NY",
        "longState": "New York",
        "zip": "11704"
      },
      "name": "West Babylon NY - Sunrise Hwy",
      "hours": {
        "regularHours": [
          {
            "days": "Monday – Sunday",
            "hours": "8am – 9pm",
            "openingTime": "12:00:00Z",
            "closingTime": "01:00:00Z",
            "daysOfWeek": [
              1,
              2,
              3,
              4,
              5,
              6,
              7
            ]
          }
        ],
        "holidayHours": [],
        "specialHours": []
      },
      "phone": "844.747.5435",
      "attributes": [],
      "coordinates": {
        "lat": 40.713825,
        "lon": -73.34192
      },
      "temporarilyClosed": false,
      "reopeningDate": ""
    },
    {
      "id": "US08008",
      "crmStoreID": "8008",
      "storeNumber": "0012L00001AaeRDQAZ",
      "address": {
        "street": "531 Montauk Highway",
        "city": "West Babylon",
        "country": "US",
        "state": "NY",
        "longState": "New York",
        "zip": "11704"
      },
      "name": "West Babylon NY - Montauk Hwy",
      "hours": {
        "regularHours": [
          {
            "days": "Monday – Sunday",
            "hours": "8am – 9pm",
            "openingTime": "12:00:00Z",
            "closingTime": "01:00:00Z",
            "daysOfWeek": [
              1,
              2,
              3,
              4,
              5,
              6,
              7
            ]
          }
        ],
        "holidayHours": [],
        "specialHours": []
      },
      "phone": "844.747.5435",
      "attributes": [],
      "coordinates": {
        "lat": 40.68571,
        "lon": -73.34597
      },
      "temporarilyClosed": false,
      "reopeningDate": ""
    },
    {
      "id": "US08009",
      "crmStoreID": "8009",
      "storeNumber": "0012L000014Q0oKQAS",
      "address": {
        "street": "5601 Merrick Rd",
        "city": "Massapequa",
        "country": "US",
        "state": "NY",
        "longState": "New York",
        "zip": "11758"
      },
      "name": "Massapequa NY - Merrick Road",
      "hours": {
        "regularHours": [
          {
            "days": "Monday – Sunday",
            "hours": "8am – 9pm",
            "openingTime": "12:00:00Z",
            "closingTime": "01:00:00Z",
            "daysOfWeek": [
              1,
              2,
              3,
              4,
              5,
              6,
              7
            ]
          }
        ],
        "holidayHours": [],
        "specialHours": []
      },
      "phone": "844.747.5435",
      "attributes": [],
      "coordinates": {
        "lat": 40.66946,
        "lon": -73.43042
      },
      "temporarilyClosed": false,
      "reopeningDate": ""
    },
    {
      "id": "US08011",
      "crmStoreID": "8011",
      "storeNumber": "0012L00001AaeRFQAZ",
      "address": {
        "street": "2187 Frederick Douglass Boulevard",
        "city": "Harlem",
        "country": "US",
        "state": "NY",
        "longState": "New York",
        "zip": "10026"
      },
      "name": "Harlem NY - Frederick Douglass Blvd",
      "hours": {
        "regularHours": [
          {
            "days": "Monday – Sunday",
            "hours": "8am – 11pm",
            "openingTime": "12:00:00Z",
            "closingTime": "03:00:00Z",
            "daysOfWeek": [
              1,
              2,
              3,
              4,
              5,
              6,
              7
            ]
          }
        ],
        "holidayHours": [],
        "specialHours": []
      },
      "phone": "844.747.5435",
      "attributes": [],
      "coordinates": {
        "lat": 40.80356,
        "lon": -73.956
      },
      "temporarilyClosed": false,
      "reopeningDate": ""
    },
    {
      "id": "US08012",
      "crmStoreID": "8012",
      "storeNumber": "0012L000014Q0oJQAS",
      "address": {
        "street": "4560 Sunrise Hwy",
        "city": "Oakdale",
        "country": "US",
        "state": "NY",
        "longState": "New York",
        "zip": "11769"
      },
      "name": "Oakdale NY - Sunrise Hwy",
      "hours": {
        "regularHours": [
          {
            "days": "Monday – Sunday",
            "hours": "8am – 9pm",
            "openingTime": "12:00:00Z",
            "closingTime": "01:00:00Z",
            "daysOfWeek": [
              1,
              2,
              3,
              4,
              5,
              6,
              7
            ]
          }
        ],
        "holidayHours": [],
        "specialHours": []
      },
      "phone": "844.747.5435",
      "attributes": [],
      "coordinates": {
        "lat": 40.752438,
        "lon": -73.11698
      },
      "temporarilyClosed": false,
      "reopeningDate": ""
    },
    {
      "id": "US08013",
      "crmStoreID": "8013",
      "storeNumber": "0012L000014Q0nzQAC",
      "address": {
        "street": "655 Montauk Hwy",
        "city": "East Patchogue",
        "country": "US",
        "state": "NY",
        "longState": "New York",
        "zip": "11772"
      },
      "name": "East Patchogue NY - Montauk Hwy",
      "hours": {
        "regularHours": [
          {
            "days": "Monday – Sunday",
            "hours": "8am – 9pm",
            "openingTime": "12:00:00Z",
            "closingTime": "01:00:00Z",
            "daysOfWeek": [
              1,
              2,
              3,
              4,
              5,
              6,
              7
            ]
          }
        ],
        "holidayHours": [],
        "specialHours": []
      },
      "phone": "844.747.5435",
      "attributes": [],
      "coordinates": {
        "lat": 40.76886,
        "lon": -72.98977
      },
      "temporarilyClosed": false,
      "reopeningDate": ""
    },
    {
      "id": "US08014",
      "crmStoreID": "8014",
      "storeNumber": "0012L000014Q0oPQAS",
      "address": {
        "street": "560 Larkfield Rd",
        "city": "East Northport",
        "country": "US",
        "state": "NY",
        "longState": "New York",
        "zip": "11731"
      },
      "name": "East Northport NY - Larkfield Rd",
      "hours": {
        "regularHours": [
          {
            "days": "Monday – Sunday",
            "hours": "8am – 9pm",
            "openingTime": "12:00:00Z",
            "closingTime": "01:00:00Z",
            "daysOfWeek": [
              1,
              2,
              3,
              4,
              5,
              6,
              7
            ]
          }
        ],
        "holidayHours": [],
        "specialHours": []
      },
      "phone": "844.747.5435",
      "attributes": [],
      "coordinates": {
        "lat": 40.858395,
        "lon": -73.31972
      },
      "temporarilyClosed": false,
      "reopeningDate": ""
    },
    {
      "id": "US08015",
      "crmStoreID": "8015",
      "storeNumber": "0012L000014Q0oNQAS",
      "address": {
        "street": "19-30 37th St",
        "city": "Astoria",
        "country": "US",
        "state": "NY",
        "longState": "New York",
        "zip": "11105"
      },
      "name": "Astoria NY - 37th St",
      "hours": {
        "regularHours": [
          {
            "days": "Monday – Sunday",
            "hours": "8am – 10pm",
            "openingTime": "12:00:00Z",
            "closingTime": "02:00:00Z",
            "daysOfWeek": [
              1,
              2,
              3,
              4,
              5,
              6,
              7
            ]
          }
        ],
        "holidayHours": [],
        "specialHours": []
      },
      "phone": "844.747.5435",
      "attributes": [],
      "coordinates": {
        "lat": 40.774567,
        "lon": -73.90647
      },
      "temporarilyClosed": false,
      "reopeningDate": ""
    },
    {
      "id": "US08017",
      "crmStoreID": "8017",
      "storeNumber": "0012L000014Q0o0QAC",
      "address": {
        "street": "1980 Hempstead Tpke",
        "city": "East Meadow",
        "country": "US",
        "state": "NY",
        "longState": "New York",
        "zip": "11554"
      },
      "name": "East Meadow NY - Hempstead Tpke",
      "hours": {
        "regularHours": [
          {
            "days": "Monday – Sunday",
            "hours": "8am – 10pm",
            "openingTime": "12:00:00Z",
            "closingTime": "02:00:00Z",
            "daysOfWeek": [
              1,
              2,
              3,
              4,
              5,
              6,
              7
            ]
          }
        ],
        "holidayHours": [],
        "specialHours": []
      },
      "phone": "844.747.5435",
      "attributes": [],
      "coordinates": {
        "lat": 40.724148,
        "lon": -73.56297
      },
      "temporarilyClosed": false,
      "reopeningDate": ""
    },
    {
      "id": "US08018",
      "crmStoreID": "8018",
      "storeNumber": "0012L00001AaeR3QAJ",
      "address": {
        "street": "70 Sunset Avenue",
        "city": "Westhampton Beach",
        "country": "US",
        "state": "NY",
        "longState": "New York",
        "zip": "11978"
      },
      "name": "Westhampton Beach NY - Sunset Ave",
      "hours": {
        "regularHours": [
          {
            "days": "Monday – Sunday",
            "hours": "8am – 9pm",
            "openingTime": "12:00:00Z",
            "closingTime": "01:00:00Z",
            "daysOfWeek": [
              1,
              2,
              3,
              4,
              5,
              6,
              7
            ]
          }
        ],
        "holidayHours": [],
        "specialHours": []
      },
      "phone": "844.747.5435",
      "attributes": [],
      "coordinates": {
        "lat": 40.814964,
        "lon": -72.64461
      },
      "temporarilyClosed": false,
      "reopeningDate": ""
    },
    {
      "id": "US08019",
      "crmStoreID": "8019",
      "storeNumber": "0012L000014Q0o2QAC",
      "address": {
        "street": "2900 Middle Country Rd",
        "city": "Lake Grove",
        "country": "US",
        "state": "NY",
        "longState": "New York",
        "zip": "11755"
      },
      "name": "Lake Grove NY - Middle Country Rd",
      "hours": {
        "regularHours": [
          {
            "days": "Monday – Sunday",
            "hours": "8am – 9pm",
            "openingTime": "12:00:00Z",
            "closingTime": "01:00:00Z",
            "daysOfWeek": [
              1,
              2,
              3,
              4,
              5,
              6,
              7
            ]
          }
        ],
        "holidayHours": [],
        "specialHours": []
      },
      "phone": "844.747.5435",
      "attributes": [],
      "coordinates": {
        "lat": 40.859497,
        "lon": -73.11538
      },
      "temporarilyClosed": false,
      "reopeningDate": ""
    },
    {
      "id": "US08020",
      "crmStoreID": "8020",
      "storeNumber": "0012L000010PNNSQA4",
      "address": {
        "street": "812 Montauk Hwy",
        "city": "Center Moriches",
        "country": "US",
        "state": "NY",
        "longState": "New York",
        "zip": "11934"
      },
      "name": "Center Moriches NY - Montauk Hwy",
      "hours": {
        "regularHours": [
          {
            "days": "Monday – Sunday",
            "hours": "8am – 9pm",
            "openingTime": "12:00:00Z",
            "closingTime": "01:00:00Z",
            "daysOfWeek": [
              1,
              2,
              3,
              4,
              5,
              6,
              7
            ]
          }
        ],
        "holidayHours": [],
        "specialHours": []
      },
      "phone": "844.747.5435",
      "attributes": [],
      "coordinates": {
        "lat": 40.802418,
        "lon": -72.8102
      },
      "temporarilyClosed": false,
      "reopeningDate": ""
    },
    {
      "id": "US08021",
      "crmStoreID": "8021",
      "storeNumber": "0012L000010PNNRQA4",
      "address": {
        "street": "1054 Old Country Road",
        "city": "Plainview",
        "country": "US",
        "state": "NY",
        "longState": "New York",
        "zip": "11803"
      },
      "name": "Plainview  NY - Old Country Road",
      "hours": {
        "regularHours": [
          {
            "days": "Monday – Sunday",
            "hours": "8am – 9pm",
            "openingTime": "12:00:00Z",
            "closingTime": "01:00:00Z",
            "daysOfWeek": [
              1,
              2,
              3,
              4,
              5,
              6,
              7
            ]
          }
        ],
        "holidayHours": [],
        "specialHours": []
      },
      "phone": "844.747.5435",
      "attributes": [],
      "coordinates": {
        "lat": 40.776024,
        "lon": -73.47141
      },
      "temporarilyClosed": false,
      "reopeningDate": ""
    },
    {
      "id": "US08023",
      "crmStoreID": "8023",
      "storeNumber": "0012L000014Q0nyQAC",
      "address": {
        "street": "696 Dogwood Ave",
        "city": "Franklin Square",
        "country": "US",
        "state": "NY",
        "longState": "New York",
        "zip": "11010"
      },
      "name": "Franklin Square NY - Dogwood Ave",
      "hours": {
        "regularHours": [
          {
            "days": "Monday – Sunday",
            "hours": "8am – 9pm",
            "openingTime": "12:00:00Z",
            "closingTime": "01:00:00Z",
            "daysOfWeek": [
              1,
              2,
              3,
              4,
              5,
              6,
              7
            ]
          }
        ],
        "holidayHours": [],
        "specialHours": []
      },
      "phone": "844.747.5435",
      "attributes": [],
      "coordinates": {
        "lat": 40.688614,
        "lon": -73.66783
      },
      "temporarilyClosed": false,
      "reopeningDate": ""
    },
    {
      "id": "US08024",
      "crmStoreID": "8024",
      "storeNumber": "0012L000014Q0oiQAC",
      "address": {
        "street": "501 Northwest Dr",
        "city": "Farmingdale",
        "country": "US",
        "state": "NY",
        "longState": "New York",
        "zip": "11735"
      },
      "name": "Farmingdale NY - Northwest Dr",
      "hours": {
        "regularHours": [
          {
            "days": "Monday – Sunday",
            "hours": "8am – 9pm",
            "openingTime": "12:00:00Z",
            "closingTime": "01:00:00Z",
            "daysOfWeek": [
              1,
              2,
              3,
              4,
              5,
              6,
              7
            ]
          }
        ],
        "holidayHours": [],
        "specialHours": []
      },
      "phone": "844.747.5435",
      "attributes": [],
      "coordinates": {
        "lat": 40.719067,
        "lon": -73.4586
      },
      "temporarilyClosed": false,
      "reopeningDate": ""
    },
    {
      "id": "US08025",
      "crmStoreID": "8025",
      "storeNumber": "0012L000014Q0ofQAC",
      "address": {
        "street": "211 Middle Country Rd",
        "city": "Selden",
        "country": "US",
        "state": "NY",
        "longState": "New York",
        "zip": "11784"
      },
      "name": "Selden NY - Middle Country Rd",
      "hours": {
        "regularHours": [
          {
            "days": "Monday – Sunday",
            "hours": "8am – 9pm",
            "openingTime": "12:00:00Z",
            "closingTime": "01:00:00Z",
            "daysOfWeek": [
              1,
              2,
              3,
              4,
              5,
              6,
              7
            ]
          }
        ],
        "holidayHours": [],
        "specialHours": []
      },
      "phone": "844.747.5435",
      "attributes": [],
      "coordinates": {
        "lat": 40.867966,
        "lon": -73.02152
      },
      "temporarilyClosed": false,
      "reopeningDate": ""
    },
    {
      "id": "US08026",
      "crmStoreID": "8026",
      "storeNumber": "0012L00001AaeRGQAZ",
      "address": {
        "street": "800 Montauk Highway",
        "city": "Shirley",
        "country": "US",
        "state": "NY",
        "longState": "New York",
        "zip": "11967"
      },
      "name": "Shirley NY - Montauk Hwy",
      "hours": {
        "regularHours": [
          {
            "days": "Monday – Sunday",
            "hours": "8am – 9pm",
            "openingTime": "12:00:00Z",
            "closingTime": "01:00:00Z",
            "daysOfWeek": [
              1,
              2,
              3,
              4,
              5,
              6,
              7
            ]
          }
        ],
        "holidayHours": [],
        "specialHours": []
      },
      "phone": "844.747.5435",
      "attributes": [],
      "coordinates": {
        "lat": 40.800766,
        "lon": -72.8706
      },
      "temporarilyClosed": false,
      "reopeningDate": ""
    },
    {
      "id": "US08030",
      "crmStoreID": "8030",
      "storeNumber": "0012L000014Q0o8QAC",
      "address": {
        "street": "6881 New Hampshire Ave",
        "city": "Takoma Park",
        "country": "US",
        "state": "MD",
        "longState": "Maryland",
        "zip": "20912"
      },
      "name": "Takoma Park MD - New Hampshire Ave",
      "hours": {
        "regularHours": [
          {
            "days": "Monday – Sunday",
            "hours": "8am – 9pm",
            "openingTime": "12:00:00Z",
            "closingTime": "01:00:00Z",
            "daysOfWeek": [
              1,
              2,
              3,
              4,
              5,
              6,
              7
            ]
          }
        ],
        "holidayHours": [],
        "specialHours": []
      },
      "phone": "844.747.5435",
      "attributes": [],
      "coordinates": {
        "lat": 38.974224,
        "lon": -76.99546
      },
      "temporarilyClosed": false,
      "reopeningDate": ""
    },
    {
      "id": "US08031",
      "crmStoreID": "8031",
      "storeNumber": "0012L000014Q0oCQAS",
      "address": {
        "street": "9274A Old Keene Mill Road Burke",
        "city": "Burke",
        "country": "US",
        "state": "VA",
        "longState": "Virginia",
        "zip": "22015"
      },
      "name": "Burke VA - Old Keene Mill Road",
      "hours": {
        "regularHours": [
          {
            "days": "Monday – Sunday",
            "hours": "8am – 9pm",
            "openingTime": "12:00:00Z",
            "closingTime": "01:00:00Z",
            "daysOfWeek": [
              1,
              2,
              3,
              4,
              5,
              6,
              7
            ]
          }
        ],
        "holidayHours": [],
        "specialHours": []
      },
      "phone": "844.747.5435",
      "attributes": [],
      "coordinates": {
        "lat": 38.776077,
        "lon": -77.266556
      },
      "temporarilyClosed": false,
      "reopeningDate": ""
    },
    {
      "id": "US08034",
      "crmStoreID": "8034",
      "storeNumber": "0012L000014Q0o6QAC",
      "address": {
        "street": "2371 Solomons Island Rd",
        "city": "Annapolis",
        "country": "US",
        "state": "MD",
        "longState": "Maryland",
        "zip": "21401"
      },
      "name": "Annapolis MD - Solomons Island Rd",
      "hours": {
        "regularHours": [
          {
            "days": "Monday – Sunday",
            "hours": "9am – 9pm",
            "openingTime": "13:00:00Z",
            "closingTime": "01:00:00Z",
            "daysOfWeek": [
              1,
              2,
              3,
              4,
              5,
              6,
              7
            ]
          }
        ],
        "holidayHours": [],
        "specialHours": []
      },
      "phone": "844.747.5435",
      "attributes": [],
      "coordinates": {
        "lat": 38.97992,
        "lon": -76.53793
      },
      "temporarilyClosed": false,
      "reopeningDate": ""
    },
    {
      "id": "US08035",
      "crmStoreID": "8035",
      "storeNumber": "0012L000014Q0o5QAC",
      "address": {
        "street": "2201 Randolph Rd, Unit A",
        "city": "Wheaton",
        "country": "US",
        "state": "MD",
        "longState": "Maryland",
        "zip": "20902"
      },
      "name": "Wheaton MD - Randolph Rd",
      "hours": {
        "regularHours": [
          {
            "days": "Monday – Sunday",
            "hours": "8am – 10pm",
            "openingTime": "12:00:00Z",
            "closingTime": "02:00:00Z",
            "daysOfWeek": [
              1,
              2,
              3,
              4,
              5,
              6,
              7
            ]
          }
        ],
        "holidayHours": [],
        "specialHours": []
      },
      "phone": "844.747.5435",
      "attributes": [],
      "coordinates": {
        "lat": 39.059727,
        "lon": -77.046715
      },
      "temporarilyClosed": false,
      "reopeningDate": ""
    }
  ]
}